     2.11           OBSERVATION DATA    M (MIXED)           RINEX VERSION / TYPE
teqc  2016Apr1                          20160802 13:51:30UTCPGM / RUN BY / DATE
Linux2.4.20-8|i386|gcc|Win32-MinGW32|=                      COMMENT
teqc  2016Apr1                          20160802 13:50:48UTCCOMMENT
teqc  2009Mar23                         20151221 01:05:03UTCCOMMENT
Linux 2.4.20-8|Pentium IV|gcc -static|Linux|486/DX+         COMMENT
BIT 2 OF LLI FLAGS DATA COLLECTED UNDER A/S CONDITION       COMMENT
IQAL CACS-GSD M099002 Iqaluit NU Canada                     MARKER NAME
40194M001                                                   MARKER NUMBER
OPERATOR            NRCan/GEODETIC SURVEY OF CANADA         OBSERVER / AGENCY
618-00821           TPS NET-G3A         3.5 Mar,16,2011 p1  REC # / TYPE / VERS
383-0408            TPSCR.G3        NONE                    ANT # / TYPE
  1036001.0200 -2631455.5600  5697819.6900                  APPROX POSITION XYZ
        0.0500        0.0000        0.0000                  ANTENNA: DELTA H/E/N
     1     1                                                WAVELENGTH FACT L1/2
     5    L1    L2    C1    P1    P2                        # / TYPES OF OBSERV
    30.0000                                                 INTERVAL
    17                                                      LEAP SECONDS
RINEXED from Topcon TPS-binary: ken.macleod@nrcan.gc.ca     COMMENT
Forced Modulo Decimation to 30 seconds                      COMMENT
This data is subject to the Open Government Licence -Canada COMMENT
http://open.canada.ca/en/open-government-licence-canada     COMMENT
 SNR is mapped to RINEX snr flag value [0-9]                COMMENT
  L1 & L2: min(max(int(snr_dBHz/6), 0), 9)                  COMMENT
teqc windowed: start @ 2015 Dec 21 00:00:00.000             COMMENT
teqc windowed: delta = 3600.000 sec                         COMMENT
pseudorange smoothing corrections not applied               COMMENT
teqc edited: all GLONASS satellites excluded                COMMENT
  2015    12    21     0     0    0.0000000     GPS         TIME OF FIRST OBS
                                                            END OF HEADER
 15 12 21  0  0  0.0000000  0 11G06G26G29G03G23G14G32G12G31G25G02
 126764722.89147  98777710.63746  24122527.242    24122527.397    24122528.633
 122093083.92647  95137475.13946  23233535.416    23233534.990    23233536.018
 123795196.03747  96463795.19846  23557437.755    23557437.986    23557432.588
 115654877.95248  90120673.79947  22008380.999    22008380.848    22008380.348
 128332145.42147  99999075.01644  24420792.734    24420792.106    24420787.254
 120745638.00247  94087517.30344  22977117.125    22977115.783    22977113.564
 118289549.58748  92173660.56346  22509740.794    22509739.228    22509738.180
 128138828.92347  99848443.47145  24384010.980    24384010.171    24384007.252
 106562758.92249  83035931.09548  20278211.412    20278210.955    20278207.578
 113987325.75748  88821298.40447  21691062.635    21691061.705    21691062.073
 133345447.08446 103905543.89342  25374794.565    25374793.561    25374789.766
 15 12 21  0  0 30.0000000  0 11G06G26G29G03G23G14G32G12G31G25G02
 126748140.82847  98764789.72446  24119371.072    24119371.623    24119372.569
 121985557.80447  95053688.54847  23213074.029    23213073.361    23213074.552
 123706597.34347  96394757.32646  23540576.776    23540577.218    23540574.256
 115667735.10248  90130692.36447  22010827.600    22010827.298    22010826.990
 128226590.29547  99916824.34344  24400707.050    24400705.516    24400700.894
 120844048.24047  94164200.66444  22995843.702    22995842.352    22995840.018
 118366158.92347  92233356.17446  22524318.737    22524317.180    22524316.191
 128250529.83846  99935483.33445  24405266.767    24405265.264    24405265.266
 106564192.99749  83037048.59048  20278484.361    20278483.941    20278480.635
 114048898.64648  88869277.21947  21702779.522    21702778.710    21702779.039
 133278259.12246 103853189.70042  25362010.223    25362007.563    25362004.258
 15 12 21  0  1  0.0000000  0 11G06G26G29G03G23G14G32G12G31G25G02
 126732158.20447  98752335.95046  24116330.260    24116330.470    24116331.591
 121878271.80647  94970089.10346  23192658.076    23192657.545    23192658.579
 123618345.63447  96325989.74346  23523781.634    23523780.753    23523780.299
 115681221.23648  90141201.04947  22013393.811    22013393.925    22013393.375
 128121166.39047  99834675.92144  24380644.810    24380644.264    24380640.308
 120942707.06247  94241077.74544  23014617.979    23014616.975    23014613.916
 118443188.38748  92293379.13945  22538977.057    22538975.745    22538974.483
 128362421.36946 100022672.40345  24426557.771    24426557.582    24426556.845
 106566127.09049  83038555.68748  20278852.340    20278851.895    20278848.491
 114110990.42348  88917660.34247  21714594.990    21714594.209    21714594.608
 133211419.25846 103801106.96042  25349290.435    25349288.414    25349286.517
 15 12 21  0  1 30.0000000  0 11G06G26G29G03G23G14G32G12G31G25G02
 126716776.89047  98740350.67046  24113402.805    24113402.857    24113405.982
 121771229.92347  94886679.90146  23172288.155    23172287.858    23172288.459
 123530445.57547  96257496.18746  23507054.877    23507053.954    23507053.777
 115695337.36148  90152200.63347  22016080.069    22016079.733    22016079.586
 128015877.12047  99752632.45044  24360609.385    24360608.112    24360604.106
 121041614.62547  94318148.73444  23033439.118    23033438.187    23033435.606
 118520637.21748  92353728.90545  22553714.765    22553713.147    22553712.452
 128474500.74746 100110007.56646  24447884.549    24447883.877    24447882.958
 106568562.15549  83040453.12948  20279315.539    20279315.138    20279311.983
 114173600.17548  88966446.96647  21726509.541    21726508.690    21726509.281
 133144930.61346 103749297.83042  25336636.395    25336635.812    25336633.113
 15 12 21  0  2  0.0000000  0 11G06G26G29G03G23G14G32G12G31G25G02
 126701996.84947  98728833.89346  24110590.754    24110590.190    24110590.811
 121664433.56947  94803461.99646  23151965.659    23151965.111    23151965.712
 123442899.29247  96189278.36246  23490395.193    23490395.309    23490393.177
 115710082.22948  90163690.15047  22018886.054    22018885.748    22018885.512
 127910723.64448  99670694.67844  24340599.825    24340600.047    24340594.266
 121140767.98447  94395411.10544  23052306.892    23052306.139    23052304.717
 118598502.11148  92414402.84645  22568532.343    22568530.977    22568529.470
 128586765.63246 100197487.20046  24469247.798    24469247.376    24469247.131
 106571497.34049  83042740.27848  20279874.196    20279873.837    20279870.657
 114236725.65148  89015635.72747  21738521.742    21738521.055    21738521.559
 133078796.02146 103697764.71742  25324052.685    25324049.756    25324049.820
 15 12 21  0  2 30.0000000  0 11G06G26G29G03G23G14G32G12G31G25G02
 126687818.33747  98717785.77646  24107892.441    24107892.696    24107893.134
 121557884.85247  94720437.04946  23131690.122    23131689.541    23131690.859
 123355709.38047  96121338.25646  23473804.462    23473804.741    23473801.388
 115725454.93748  90175668.88847  22021811.275    22021811.206    22021810.884
 127805707.73347  99588864.20844  24320614.959    24320614.148    24320611.199
 121240165.57647  94472863.77844  23071222.359    23071221.537    23071220.190
 118676780.40848  92475398.93145  22583428.244    22583426.487    22583425.742
 128699213.09346 100285109.32745  24490645.609    24490645.419    24490643.613
 106574931.80149  83045416.47948  20280527.765    20280527.285    20280524.026
 114300363.51348  89065223.63847  21750632.162    21750631.063    21750631.384
 133013016.10946 103646508.19341  25311534.720    25311533.564    25311529.908
 15 12 21  0  3  0.0000000  0 11G06G26G29G03G23G14G32G12G31G25G02
 126674242.50047  98707207.14846  24105308.449    24105306.803    24105309.221
 121451587.01947  94637607.61847  23111462.743    23111461.541    23111462.122
 123268879.85347  96053678.90046  23457280.894    23457280.332    23457279.334
 115741455.79348  90188137.08947  22024856.154    22024856.020    22024855.600
 127700832.11247  99507143.05144  24300658.669    24300658.626    24300652.444
 121339806.06947  94550505.66344  23090182.977    23090181.804    23090179.824
 118755470.49948  92536715.89145  22598402.268    22598401.014    22598399.903
 128811840.72846 100372871.47345  24512077.470    24512077.337    24512073.974
 106578866.66648  83048482.63148  20281276.394    20281276.178    20281272.841
 114364512.62948  89115209.93547  21762839.199    21762838.287    21762838.734
 132947593.75146 103595529.88841  25299084.495    25299082.672    25299079.637
 15 12 21  0  3 30.0000000  0 11G06G26G29G03G23G14G32G12G31G25G02
 126661269.65346  98697098.30746  24102839.340    24102839.113    24102841.760
 121345541.93947  94554975.09347  23091282.781    23091281.920    23091283.287
 123182413.53647  95986302.54846  23440826.680    23440825.881    23440824.897
 115758083.87248  90201094.03147  22028020.449    22028020.303    22028019.975
 127596098.72147  99425532.60444  24280728.193    24280727.205    24280720.192
 121439687.78847  94628335.50444  23109190.038    23109189.642    23109186.918
 118834569.59048  92598351.52945  22613454.433    22613453.045    22613451.851
 128924645.53346 100460771.54245  24533543.807    24533543.652    24533541.806
 106583300.61449  83051937.59648  20282120.411    20282119.927    20282116.722
 114429170.60348  89165592.86547  21775143.353    21775142.226    21775142.607
 132882531.05746 103544831.65942  25286703.526    25286701.928    25286698.213
 15 12 21  0  4  0.0000000  0 11G06G26G29G03G23G14G32G12G31G25G02
 126648900.48247  98687459.92146  24100487.352    24100487.376    24100487.761
 121239751.99347  94472541.39147  23071151.588    23071151.203    23071151.670
 123096312.77747  95919211.02546  23424441.832    23424440.374    23424438.763
 115775338.38348  90214539.11047  22031303.881    22031303.388    22031303.016
 127491509.15747  99344034.32744  24260825.026    24260823.905    24260821.123
 121539808.48347  94706351.56644  23128242.664    23128241.460    23128238.552
 118914075.03148  92660303.83245  22628583.740    22628582.569    22628581.467
 129037625.52546 100548808.25045  24555043.264    24555042.745    24555040.535
 106588233.63249  83055781.49548  20283059.097    20283058.534    20283055.207
 114494334.58348  89216370.01047  21787543.317    21787542.399    21787542.692
 132817829.76146 103494414.80542  25274392.108    25274391.208    25274386.305
 15 12 21  0  4 30.0000000  0 11G06G26G29G03G23G14G32G12G31G25G02
 126637134.30447  98678291.36246  24098247.346    24098247.166    24098249.336
 121134218.41647  94390307.40746  23051069.213    23051068.519    23051069.733
 123010579.96747  95852406.20946  23408127.256    23408126.106    23408124.469
 115793217.80048  90228471.11447  22034706.397    22034706.055    22034705.703
 127387065.00547  99262649.29844  24240950.546    24240950.073    24240943.183
 121640166.16247  94784552.31644  23147339.236    23147337.740    23147334.563
 118993983.64248  92722570.34045  22643790.113    22643788.673    22643787.507
 129150776.74146 100636978.26445  24576575.118    24576574.544    24576571.753
 106593663.89149  83060012.79648  20284092.632    20284092.243    20284088.748
 114560001.54748  89267539.10047  21800039.258    21800038.059    21800038.817
 132753492.48146 103444281.73542  25262148.803    25262147.692    25262143.576
 15 12 21  0  5  0.0000000  0 11G06G26G29G03G23G14G32G12G31G25G02
 126625973.16447  98669594.40546  24096123.068    24096123.450    24096124.229
 121028945.02547  94308276.20247  23031036.336    23031036.121    23031036.377
 122925219.39747  95785891.49646  23391885.298    23391884.005    23391883.396
 115811722.74248  90242890.55547  22038227.695    22038227.205    22038226.884
 127282769.28847  99181379.95644  24221101.936    24221101.566    24221097.831
 121740759.75547  94862936.89844  23166483.229    23166482.435    23166479.086
 119074293.85648  92785149.73545  22659072.850    22659071.250    22659069.491
 129264096.87546 100725279.68645  24598138.538    24598137.634    24598136.754
 106599593.03248  83064632.88848  20285220.752    20285220.287    20285217.133
 114626170.45848  89319099.28747  21812630.736    21812629.709    21812630.199
 132689522.48046 103394434.99742  25249975.771    25249974.682    25249970.507
 15 12 21  0  5 30.0000000  0 11G06G26G29G03G23G14G32G12G31G25G02
 126615416.45546  98661368.28046  24094114.511    24094115.266    24094115.422
 120923933.50347  94226449.06647  23011053.012    23011052.656    23011054.220
 122840233.33447  95719668.62246  23375711.497    23375711.059    23375709.864
 115830851.86048  90257796.36047  22041867.566    22041867.497    22041867.085
 127178623.49247  99100227.46143  24201285.142    24201285.166    24201279.559
 121841587.00047  94941503.59344  23185667.899    23185667.055    23185665.308
 119155002.58748  92848039.61545  22674430.901    22674429.615    22674428.678
 129377584.56247 100813711.73645  24619735.066    24619734.104    24619731.729
 106606019.36749  83069640.40248  20286443.807    20286443.224    20286439.940
 114692838.30348  89371048.23547  21825317.493    21825316.152    21825316.817
 132625920.89946 103344875.56342  25237872.550    25237871.949    25237866.886
 15 12 21  0  6  0.0000000  0 11G06G26G29G03G23G14G32G12G31G25G02
 126605464.86247  98653613.64446  24092221.081    24092221.336    24092222.198
 120819186.22847  94144827.78447  22991120.394    22991120.073    22991120.844
 122755624.64547  95653739.72346  23359613.831    23359613.525    23359609.354
 115850604.65548  90273188.13547  22045626.518    22045626.340    22045626.088
 127074629.85947  99019193.53144  24181493.485    24181492.714    24181490.069
 121942646.33647  95020251.15844  23204900.367    23204899.198    23204896.468
 119236107.70048  92911238.37245  22689864.847    22689863.207    22689861.656
 129491236.31647 100902271.58445  24641362.428    24641361.985    24641358.746
 106612942.78649  83075035.21148  20287761.207    20287760.777    20287757.554
 114760002.91948  89423384.20147  21838098.414    21838097.633    21838097.872
 132562689.93846 103295604.70142  25225840.183    25225838.869    25225835.171
 15 12 21  0  6 30.0000000  0 11G06G26G29G03G23G14G32G12G31G25G02
 126596118.57647  98646330.68046  24090443.073    24090443.391    24090444.578
 120714705.51047  94063414.27347  22971238.517    22971237.908    22971238.625
 122671396.28547  95588107.24346  23343584.184    23343583.289    23343581.890
 115870980.06748  90289065.06947  22049503.881    22049503.585    22049503.434
 126970790.14047  98938279.47944  24161735.367    24161735.182    24161729.904
 122043935.93647  95099178.14144  23224175.174    23224174.123    23224172.097
 119317606.32448  92974743.73345  22705373.474    22705371.926    22705370.924
 129605050.15746 100990957.89345  24663019.556    24663019.260    24663016.321
 106620363.27548  83080817.44148  20289173.241    20289172.860    20289169.658
 114827661.71448  89476105.22747  21850973.428    21850972.591    21850973.267
 132499832.64546 103246625.38742  25213878.503    25213877.041    25213873.739
 15 12 21  0  7  0.0000000  0 11G06G26G29G03G23G14G32G12G31G25G02
 126587377.88346  98639519.50346  24088779.786    24088779.119    24088780.908
 120610493.45047  93982210.01547  22951407.548    22951407.163    22951408.542
 122587551.32347  95522773.56346  23327628.580    23327628.129    23327626.628
 115891977.48848  90305426.68847  22053499.569    22053499.316    22053498.882
 126867106.58647  98857487.16344  24142004.496    24142003.576    24142000.213
 122145453.73947  95178282.89144  23243492.995    23243492.528    23243490.828
 119399496.19847  93038554.01345  22720956.239    22720954.725    22720954.079
 129719023.21846 101079768.27145  24684707.905    24684707.591    24684703.929
 106628279.72449  83086986.18448  20290679.699    20290679.190    20290675.977
 114895812.62248  89529209.73347  21863942.283    21863941.407    21863941.795
 132437349.79546 103197937.62042  25201988.049    25201987.347    25201983.353
 15 12 21  0  7 30.0000000  0 11G06G26G29G03G23G14G32G12G31G25G02
 126579243.67546  98633180.88846  24087230.619    24087229.485    24087234.239
 120506553.10647  93901217.50247  22931628.624    22931627.311    22931628.801
 122504093.05447  95457741.18246  23311747.604    23311746.966    23311744.167
 115913596.61748  90322272.75447  22057613.513    22057613.311    22057613.268
 126763581.69547  98776818.47344  24122305.075    24122304.370    24122301.118
 122247198.47147  95257564.49644  23262854.632    23262853.525    23262851.545
 119481775.24348  93102667.53445  22736613.529    22736612.422    22736611.359
 129833152.49346 101168700.09145  24706426.481    24706426.013    24706422.803
 106636692.14449  83093541.27848  20292280.562    20292280.058    20292276.855
 114964453.66548  89582696.13847  21877003.953    21877003.231    21877004.055
 132375243.94346 103149543.35542  25190170.048    25190169.295    25190163.548
 15 12 21  0  8  0.0000000  0 11G06G26G29G03G23G14G32G12G31G25G02
 126571716.57546  98627315.80946  24085798.984    24085798.843    24085800.655
 120402886.10347  93820438.05447  22911901.764    22911900.898    22911901.725
 122421023.45247  95393011.64146  23295939.805    23295939.087    23295935.867
 115935835.79048  90339601.97847  22061845.522    22061845.246    22061845.239
 126660216.75647  98696274.27144  24102635.221    24102634.245    24102629.516
 122349167.74447  95337021.07644  23282258.483    23282257.545    23282256.026
 119564440.03448  93167081.67345  22752344.107    22752342.682    22752341.682
 129947435.09146 101257751.28945  24728173.313    24728171.161    24728170.977
 106645600.07549  83100482.50948  20293975.772    20293975.188    20293971.957
 115033581.76147  89636562.09047  21890158.891    21890157.836    21890158.524
 132313517.53746 103101444.99342  25178424.057    25178422.076    25178419.361
 15 12 21  0  8 30.0000000  0 11G06G26G29G03G23G14G32G12G31G25G02
 126564795.81147  98621923.02546  24084483.175    24084483.474    24084483.496
 120299494.85447  93739873.43547  22892226.634    22892226.154    22892226.719
 122338345.86747  95328587.52646  23280206.036    23280205.258    23280203.468
 115958694.55248  90357413.99647  22066195.316    22066194.807    22066194.844
 126557014.35047  98615856.90444  24082995.622    24082995.065    24082992.264
 122451360.22147  95416651.54144  23301705.013    23301704.813    23301701.667
 119647488.36048  93231794.63645  22768147.739    22768146.578    22768145.248
 130061869.80946 101346921.05145  24749949.032    24749949.696    24749946.820
 106655002.76148  83107809.25748  20295764.859    20295764.450    20295761.238
 115103193.95748  89690804.81047  21903405.959    21903404.988    21903405.786
 132252172.25946 103053643.43643  25166750.814    25166749.159    25166743.992
 15 12 21  0  9  0.0000000  0 11G06G26G29G03G23G14G32G12G31G25G02
 126558481.59347  98617002.82746  24083281.051    24083280.858    24083281.296
 120196381.36847  93659525.22647  22872604.908    22872604.390    22872605.417
 122256062.89247  95264470.93946  23264548.678    23264548.101    23264546.352
 115982171.62248  90375707.78747  22070663.253    22070662.773    22070662.560
 126453976.56847  98535567.69744  24063388.409    24063388.089    24063382.897
 122553773.60247  95496454.13944  23321194.415    23321192.446    23321190.997
 119730917.44347  93296804.31945  22784023.602    22784022.071    22784021.262
 130176454.49546 101436208.41045  24771753.917    24771753.202    24771751.562
 106664899.82849  83115521.43048  20297648.105    20297647.661    20297644.413
 115173288.36848  89745423.26747  21916745.207    21916744.205    21916745.074
 132191209.53546 103006139.56543  25155150.141    25155149.311    25155143.586
 15 12 21  0  9 30.0000000  0 11G06G26G29G03G23G14G32G12G31G25G02
 126552775.37346  98612556.40646  24082194.858    24082194.269    24082196.456
 120093549.19247  93579396.23947  22853036.440    22853036.088    22853036.805
 122174178.74647  95200665.16146  23248966.219    23248965.737    23248963.696
 116006267.37448  90394483.72447  22075248.364    22075247.872    22075247.761
 126351105.58947  98455408.52444  24043811.752    24043811.370    24043807.605
 122656407.28947  95576428.45544  23340724.212    23340722.799    23340721.390
 119814725.65947  93362109.39245  22799971.962    22799970.386    22799969.476
 130291185.07746 101525609.01745  24793585.939    24793585.777    24793583.409
 106675291.20249  83123618.55748  20299625.561    20299625.163    20299621.841
 115243864.87048  89800417.93847  21930175.445    21930174.633    21930175.646
 132130633.92046 102958937.49542  25143622.433    25143621.755    25143617.802
 15 12 21  0 10  0.0000000  0 11G06G26G29G03G23G14G32G12G31G25G02
 126547675.62447  98608582.33946  24081224.740    24081223.574    24081226.937
 119990999.45847  93499487.30147  22833522.147    22833521.264    22833522.309
 122092694.73147  95137171.11946  23233460.833    23233460.193    23233457.794
 116030979.64648  90413740.03247  22079950.809    22079950.515    22079950.007
 126248403.03447  98375380.58944  24024269.211    24024267.829    24024264.438
 122759258.58047  95656572.37444  23360296.308    23360294.618    23360293.319
 119898909.61448  93427707.31345  22815991.723    22815990.131    22815989.001
 130406059.71346 101615122.08545  24815445.828    24815444.663    24815442.926
 106686175.70249  83132099.98848  20301696.952    20301696.418    20301693.248
 115314917.59148  89855783.02847  21943696.746    21943695.942    21943696.931
 132070445.95646 102912037.58942  25132169.797    25132168.699    25132164.089
 15 12 21  0 10 30.0000000  0 11G06G26G29G03G23G14G32G12G31G25G02
 126543183.51847  98605081.76746  24080370.476    24080369.336    24080372.407
 119888734.96547  93419800.73047  22814061.832    22814060.944    22814062.133
 122011614.07447  95073991.37346  23218031.230    23218031.020    23218027.659
 116056307.82948  90433476.28247  22084770.674    22084770.588    22084770.120
 126145871.18147  98295485.65544  24004756.980    24004756.043    24004752.605
 122862325.57647  95736884.31744  23379909.095    23379908.257    23379906.305
 119983466.65447  93493595.89745  22832082.446    22832080.770    22832079.929
 130521074.69946 101704744.33845  24837332.062    24837332.406    24837328.532
 106697553.43949  83140965.77948  20303862.148    20303861.564    20303858.282
 115386446.10548  89911519.10147  21957308.661    21957307.668    21957309.011
 132010647.19646 102865440.74543  25120790.855    25120789.525    25120785.171
 15 12 21  0 11  0.0000000  0 11G06G26G29G03G23G14G32G12G31G25G02
 126539299.49647  98602055.02846  24079631.712    24079631.170    24079633.687
 119786758.18847  93340338.32347  22794656.547    22794655.843    22794656.598
 121930940.34847  95011128.73346  23202679.372    23202678.037    23202677.100
 116082251.41548  90453692.06947  22089707.467    22089707.467    22089706.963
 126043512.97847  98215726.01444  23985280.986    23985279.990    23985274.867
 122965607.07947  95817363.36444  23399563.039    23399562.688    23399560.484
 120068394.94347  93559773.81245  22848243.758    22848242.063    22848241.458
 130636228.96946 101794475.05045  24859244.982    24859244.621    24859242.645
 106709424.34349  83150215.90648  20306120.914    20306120.474    20306117.100
 115458448.35648  89967624.47347  21971010.757    21971009.540    21971010.824
 131951240.93446 102819149.79643  25109485.857    25109483.800    25109480.581
 15 12 21  0 11 30.0000000  0 11G06G26G29G03G23G14G32G12G31G25G02
 126536023.48447  98599502.30546  24079009.095    24079009.561    24079009.820
 119685070.78947  93261101.43647  22775305.584    22775305.098    22775306.155
 121850675.50147  94948584.70146  23187406.636    23187406.010    23187404.573
 116108808.56548  90474385.95947  22094760.966    22094760.760    22094760.923
 125941329.30347  98136102.39844  23965833.763    23965832.161    23965829.462
 123069100.40747  95898007.50144  23419256.845    23419256.057    23419254.132
 120153691.04447  93626238.34345  22864474.892    22864473.089    22864472.640
 130751519.08446 101884311.46745  24881184.424    24881183.796    24881181.491
 106721786.43549  83159848.68448  20308473.313    20308472.886    20308469.484
 115530921.15647  90024096.71647  21984801.206    21984800.700    21984801.458
 131892227.23946 102773164.22343  25098256.848    25098254.413    25098250.267
 15 12 21  0 12  0.0000000  0 11G06G26G29G03G23G14G32G12G31G25G02
 126533355.25747  98597423.31446  24078500.098    24078500.561    24078501.616
 119583675.02447  93182091.78247  22756010.224    22756010.067    22756011.015
 121770822.35247  94886361.40846  23172210.660    23172210.053    23172207.800
 116135978.34648  90495557.19947  22099931.642    22099931.311    22099930.765
 125839322.70647  98056616.75544  23946424.209    23946423.325    23946419.241
 123172803.94847  95978815.48944  23438991.144    23438989.901    23438988.171
 120239352.38247  93692987.45045  22880775.455    22880773.951    22880773.365
 130866943.26146 101974252.71645  24903148.820    24903147.991    24903146.609
 106734639.48549  83169864.02748  20310919.166    20310918.696    20310915.414
 115603861.41348  90080932.98547  21998681.919    21998680.914    21998681.959
 131833610.46146 102727488.26742  25087103.093    25087101.703    25087097.042
 15 12 21  0 12 30.0000000  0 11G06G26G29G03G23G14G32G12G31G25G02
 126531295.47247  98595818.57446  24078108.769    24078109.439    24078110.938
 119482573.68247  93103311.54347  22736771.686    22736771.250    22736771.980
 121691384.59747  94824461.96946  23157093.177    23157093.027    23157092.172
 116163760.24048  90517205.40847  22105217.925    22105217.465    22105218.001
 125737495.41547  97977270.83644  23927045.758    23927044.471    23927041.914
 123276716.52647  96059786.31944  23458764.864    23458763.740    23458762.190
 120325376.71847  93760019.40245  22897145.766    22897144.375    22897142.980
 130982498.48546 102064295.95945  24925137.882    24925137.819    24925135.305
 106747983.44748  83180261.90948  20313458.449    20313458.064    20313454.769
 115677268.82948  90138133.97047  22012650.318    22012649.672    22012650.775
 131775392.06946 102682122.66442  25076025.392    25076022.589    25076020.460
 15 12 21  0 13  0.0000000  0 11G06G26G29G03G23G14G32G12G31G25G02
 126529843.72146  98594687.54546  24077831.784    24077830.623    24077833.547
 119381769.01447  93024762.47047  22717589.390    22717588.622    22717589.410
 121612364.61947  94762888.02446  23142055.678    23142055.005    23142053.490
 116192153.16048  90539329.77147  22110621.107    22110620.910    22110620.660
 125635849.51347  97898066.20544  23907704.225    23907703.577    23907698.385
 123380835.99147  96140918.29944  23478578.864    23478577.738    23478575.488
 120411761.52548  93827332.22745  22913584.043    22913582.779    22913581.583
 131098181.94546 102154438.82445  24947151.720    24947151.069    24947147.182
 106761818.31548  83191042.34348  20316091.105    20316090.668    20316087.402
 115751138.91747  90195695.13247  22026707.744    22026706.729    22026707.635
 131717574.77146 102637070.18443  25065022.122    25065021.555    25065018.488
 15 12 21  0 13 30.0000000  0 11G06G26G29G03G23G14G32G12G31G25G02
 126528999.88447  98594030.25746  24077671.479    24077671.564    24077672.693
 119281263.04447  92946446.17947  22698463.425    22698463.067    22698463.573
 121533765.06147  94701641.66146  23127100.200    23127099.923    23127097.039
 116221155.67548  90561929.13847  22116140.390    22116139.932    22116139.662
 125534387.05447  97819004.59744  23888395.945    23888394.940    23888392.156
 123485160.25247  96222209.83444  23498430.393    23498428.975    23498429.537
 120498503.89647  93894923.70245  22930090.663    22930089.051    22930087.654
 131213989.88346 102244678.09945  24969190.242    24969189.297    24969185.360
 106776141.71249  83202203.09548  20318816.961    20318816.534    20318813.389
 115825469.75448  90253615.35347  22040852.456    22040851.050    22040852.443
 131660160.53046 102592332.12043  25054097.196    25054096.066    25054091.705
 15 12 21  0 14  0.0000000  0 12G06G26G29G03G23G14G32G12G16G31G25G02
 126528763.92747  98593846.36646  24077626.912    24077627.560    24077627.222
 119181058.60747  92868364.86147  22679395.339    22679394.754    22679395.691
 121455589.16247  94640725.41646  23112222.889    23112222.319    23112221.207
 116250767.24748  90585003.08647  22121775.062    22121774.828    22121774.377
 125433110.70847  97740088.00044  23869123.881    23869123.366    23869119.524
 123589688.56347  96303660.36444  23518321.110    23518319.633    23518318.796
 120585601.70547  93962792.12745  22946665.205    22946663.672    22946662.574
 131329921.94246 102335013.69045  24991252.108    24991252.029    24991248.448
 131456324.25546 102433501.79142  25015305.483    25015305.372    25015304.750
 106790954.84649  83213745.54948  20321636.046    20321635.631    20321632.379
 115900259.31648  90311893.02547  22055084.334    22055083.135    22055084.308
 131603150.27247 102547908.65843  25043248.998    25043247.767    25043242.025
 15 12 21  0 14 30.0000000  0 12G06G26G29G03G23G14G32G12G16G31G25G02
 126529135.92747  98594136.42346  24077696.218    24077696.647    24077698.276
 119081157.01747  92790519.52447  22660384.457    22660383.765    22660384.462
 121377838.72147  94580140.70246  23097427.396    23097426.399    23097425.145
 116280985.89548  90608550.12747  22127525.388    22127525.106    22127524.959
 125332021.75347  97661317.43244  23849886.945    23849885.843    23849882.846
 123694417.76747  96385267.48344  23538252.045    23538250.594    23538247.973
 120673051.45547  94030934.76645  22963306.169    22963304.626    22963303.771
 131445976.24146 102425445.52945  25013336.602    25013336.479    25013333.247
 131331206.12146 102336007.47541  24991495.774    24991495.295    24991494.602
 106806256.19948  83225668.53848  20324547.872    20324547.417    20324544.438
 115975503.94847  90370525.22547  22069402.009    22069401.663    22069402.881
 131546544.63646 102503799.78543  25032476.032    25032474.909    25032471.933
 15 12 21  0 15  0.0000000  0 12G06G26G29G03G23G14G32G12G16G31G25G02
 126530117.41947  98594901.49946  24077882.528    24077882.593    24077883.879
 118981562.43747  92712913.39147  22641432.427    22641431.390    22641432.322
 121300518.25447  94519890.98446  23082714.317    23082713.933    23082710.490
 116311812.23847  90632570.66547  22133391.356    22133390.994    22133390.702
 125231124.34047  97582696.11945  23830687.036    23830686.329    23830682.477
 123799347.61847  96467030.92544  23558219.068    23558218.399    23558215.067
 120760852.39947  94099351.06045  22980014.166    22980012.234    22980011.821
 131562151.28246 102515971.69445  25035443.860    25035442.846    25035441.091
 131206142.33746 102238555.38841  24967697.887    24967694.812    24967696.422
 106822047.96349  83237974.21148  20327552.751    20327552.306    20327549.081
 116051204.66848  90429513.45347  22083807.482    22083806.599    22083807.479
 131490349.10846 102460010.71343  25021783.920    25021783.198    25021779.438
 15 12 21  0 15 30.0000000  0 12G06G26G29G03G23G14G32G12G16G31G25G02
 126531705.69346  98596139.20746  24078184.254    24078183.253    24078185.941
 118882274.95447  92635546.55747  22622538.774    22622538.001    22622538.652
 121223629.05447  94459977.35646  23068083.220    23068082.632    23068078.930
 116343242.99748  90657062.18547  22139372.325    22139372.169    22139371.981
 125130418.01147  97504223.66644  23811523.121    23811521.289    23811517.894
 123904474.42047  96548947.80344  23578223.146    23578222.037    23578219.678
 120848999.68747  94168037.22945  22996787.588    22996786.054    22996784.755
 131678441.59246 102606587.51745  25057573.130    25057571.774    25057570.556
 131081135.28146                  24943908.729
 106838326.04249  83250658.64148  20330650.219    20330649.675    20330646.491
 116127354.35448  90488850.93947  22098298.172    22098297.019    22098297.936
 131434562.89346 102416540.23543  25011168.952    25011168.496    25011162.720
 15 12 21  0 16  0.0000000  0 12G06G26G29G03G23G14G32G12G16G31G25G02
 126533901.12147  98597850.04446  24078602.638    24078602.694    24078602.458
 118783296.94047  92558420.85847  22603703.302    22603702.920    22603703.873
 121147173.35047  94400401.50746  23053533.921    23053533.439    23053529.951
 116375277.03648  90682023.78647  22145468.169    22145468.219    22145467.942
 125029905.43047  97425902.24245  23792396.440    23792395.336    23792391.887
 124009796.93847  96631017.29643  23598265.583    23598263.892    23598262.175
 120937491.04147  94236991.58245  23013627.040    23013625.522    23013624.927
 131794846.23546 102697292.92545  25079724.050    25079723.195    25079721.927
 130956184.41346                  24920130.863
 106855089.30348  83263720.81448  20333840.067    20333839.643    20333836.452
 116203950.20348  90548535.30747  22112874.639    22112873.588    22112874.865
 131379188.20946 102373390.62643  25000629.915    25000629.358    25000624.530
 15 12 21  0 16 30.0000000  0 12G06G26G29G03G23G14G32G12G16G31G25G02
 126536704.46946  98600034.60646  24079136.434    24079135.860    24079136.502
 118684631.69247  92481538.88747  22584927.883    22584927.740    22584928.531
 121071155.29847  94341166.69246  23039067.988    23039067.842    23039064.134
 116407914.14648  90707455.31447  22151679.040    22151678.732    22151678.480
 124929589.50547  97347734.00944  23773307.110    23773306.639    23773302.355
 124115313.95147  96713238.35544  23618345.964    23618345.367    23618340.754
 121026324.56547  94306212.54545  23030531.547    23030530.045    23030529.261
 131911362.44246 102788085.32645  25101896.047    25101895.545    25101893.588
 130831294.44846                  24896367.041
 106872338.58149  83277161.53548  20337122.721    20337122.290    20337119.106
 116280994.27448  90608569.93747  22127535.552    22127534.122    22127535.171
 131324226.70646                  24990173.359
 15 12 21  0 17  0.0000000  0 12G06G26G29G03G23G14G32G12G16G31G25G02
 126540114.26046  98602691.58546  24079785.484    24079785.502    24079786.179
 118586280.32747  92404901.50647  22566212.594    22566212.140    22566212.473
 120995576.20847  94282273.96046  23024684.758    23024683.582    23024682.024
 116441151.90448  90733354.84847  22158003.704    22158003.768    22158003.339
 124829471.52247  97269720.00844  23754254.706    23754253.773    23754250.505
 124221022.26047  96795608.49844  23638461.251    23638459.916    23638457.310
 121115496.69847  94375697.41645  23047500.636    23047499.163    23047497.637
 132027985.59146 102878960.63145  25124088.608    25124087.293    25124084.882
 130706467.85546 101849199.36242  24872612.738    24872610.697    24872611.676
 106890073.06749  83290980.67848  20340497.273    20340496.913    20340493.961
 116358481.20948  90668949.78247  22142280.541    22142279.215    22142280.256
 131269683.70046 102288062.56942  24979793.785    24979793.277    24979790.426
 15 12 21  0 17 30.0000000  0 12G06G26G29G03G23G14G32G12G16G31G25G02
 126544131.82747  98605822.12446  24080550.638    24080550.189    24080549.801
 118488246.29847  92328511.38347  22547557.255    22547556.757    22547557.176
 120920440.08247  94223726.29846  23010388.118    23010388.123    23010384.696
 116474990.33648  90759722.42747  22164443.163    22164443.204    22164442.756
 124729554.60847  97191862.72244  23735241.424    23735240.503    23735236.362
 124326921.53247  96878127.36044  23658613.011    23658611.610    23658610.509
 121205005.55847  94445444.57045  23064533.635    23064532.489    23064531.106
 132144715.80546 102969919.22245  25146301.318    25146301.146    25146298.020
 130581708.39746                  24848871.082
 106908292.73349  83305177.88848  20343964.587    20343964.078    20343960.982
 116436409.39547  90729673.39547  22157109.072    22157108.427    22157109.312
 131215558.57546 102245887.27442  24969492.885    24969491.891    24969488.927
 15 12 21  0 18  0.0000000  0 11G06G26G29G03G23G14G32G16G31G25G02
 126548757.07246  98609426.22946  24081429.981    24081428.626    24081431.554
 118390531.89347  92252370.30247  22528962.922    22528962.028    22528962.767
 120845749.83547  94165526.06746  22996174.825    22996174.087    22996171.775
 116509428.23848  90786557.15147  22170996.757    22170996.347    22170996.277
 124629841.19347  97114164.03845  23716266.580    23716265.690    23716261.378
 124433010.18047  96960793.81044  23678801.164    23678799.925    23678798.428
 121294848.86947  94515452.33445  23081629.937    23081628.648    23081627.741
 130457016.24746                  24825143.080
 106926996.94649  83319752.54948  20347523.872    20347523.457    20347520.227
 116514776.33048  90790738.82947  22172021.682    22172020.497    22172021.502
 131161853.13946 102204038.43943  24959274.843    24959273.669    24959269.893
 15 12 21  0 18 30.0000000  0 11G06G26G29G03G23G14G32G16G31G25G02
 126553988.08046  98613502.12046  24082425.494    24082425.133    24082427.728
 118293138.23547  92176479.13047  22510429.667    22510428.729    22510429.397
 120771506.93847  94107674.42346  22982046.660    22982045.677    22982043.150
 116544463.12048  90813857.03647  22177663.258    22177663.379    22177663.062
 124530332.30747  97036624.71445  23697330.126    23697329.610    23697326.212
 124539285.19146  97043605.51543  23699024.108    23699022.575    23699021.257
 121385022.77648  94585717.70445  23098790.050    23098788.677    23098786.667
 130332393.74046                  24801426.702
 106946183.98849  83334703.34748  20351175.217    20351174.757    20351171.591
 116593578.16948  90852142.94447  22187017.550    22187016.263    22187016.858
 131108570.83546 102162519.82643  24949134.790    24949134.155    24949131.331
 15 12 21  0 19  0.0000000  0 11G06G26G29G03G23G14G32G16G31G25G02
 126559826.50547  98618051.31146  24083536.782    24083536.508    24083538.611
 118196068.94447  92100840.71547  22491957.854    22491957.270    22491958.030
 120697715.43447  94050174.45146  22968004.533    22968003.841    22968000.047
 116580094.98248  90841622.08647  22184444.228    22184443.853    22184443.499
 124431031.50748  96959247.46845  23678434.738    23678433.690    23678429.277
 124645745.72746  97126561.64743  23719282.632    23719281.709    23719281.043
 121475526.12947  94656239.83545  23116012.090    23116010.610    23116009.222
 130207843.92646                  24777726.076
 106965854.02048  83350030.34948  20354918.598    20354918.078    20354914.963
 116672813.97147  90913885.15647  22202095.266    22202094.256    22202095.000
 131055711.17946 102121330.17443  24939076.444    24939075.410    24939072.702
 15 12 21  0 19 30.0000000  0 11G06G26G29G03G23G14G32G16G31G25G02
 126566271.59746  98623073.13946  24084762.405    24084761.175    24084763.955
 118099326.07548  92025456.67747  22473548.391    22473547.527    22473547.842
 120624377.57647  93993027.85346  22954048.401    22954048.226    22954045.670
 116616322.33848  90869851.17147  22191338.064    22191337.766    22191337.348
 124331940.88247  96882034.00445  23659578.001    23659577.167    23659573.368
 124752389.87546  97209660.92443  23739576.270    23739575.143    23739574.011
 121566355.87047  94727016.33045  23133295.801    23133294.591    23133293.314
 130083369.87746                  24754038.865
 106986008.12249  83365735.21348  20358753.348    20358752.977    20358749.729
 116752480.85847  90975963.14047  22217254.969    22217254.613    22217254.910
 131003278.03746 102080472.70043  24929099.538    24929098.465    24929094.281
 15 12 21  0 20  0.0000000  0 11G06G26G29G03G23G14G32G16G31G25G02
 126573322.05846  98628566.76846  24086104.483    24086104.187    24086107.185
 118002910.41048  91950327.62047  22455200.725    22455200.249    22455201.081
 120551494.97047  93936236.06246  22940181.035    22940179.772    22940176.354
 116653142.27548  90898542.02147  22198344.443    22198344.132    22198344.182
 124233060.82748  96804984.66445  23640761.719    23640760.612    23640756.192
 124859214.38746  97292900.72943  23759904.996    23759904.270    23759901.952
 121657507.80147  94798043.83845  23150641.361    23150639.440    23150639.220
 129958971.79846                  24730366.704
 107006641.80948  83381813.39648  20362680.022    20362679.499    20362676.365
 116832576.61948  91038376.02947  22232496.510    22232495.673    22232496.347
 130951273.47446 102039950.07043  24919203.107    24919202.075    24919198.988
 15 12 21  0 20 30.0000000  0 11G06G26G29G03G23G14G32G16G31G25G02
 126580978.60146  98634532.68846  24087561.642    24087561.441    24087563.439
 117906825.42748  91875456.24247  22436916.432    22436915.870    22436916.737
 120479071.30547  93879801.93246  22926398.427    22926397.948    22926395.231
 116690554.66648  90927694.49047  22205463.977    22205463.718    22205463.342
 124134395.04947  96728102.26045  23621985.708    23621985.156    23621981.421
 124966218.83447  97376280.70743  23780267.390    23780266.544    23780264.126
 121748980.54747  94869321.27345  23168048.620    23168047.361    23168045.457
 129834653.70446                  24706709.652
 107027756.95349  83398266.92948  20366697.958    20366697.433    20366694.189
 116913097.32047  91101119.44747  22247819.330    22247818.170    22247818.678
 130899699.31846 101999763.34642  24909387.821    24909385.710    24909383.271
 15 12 21  0 21  0.0000000  0 11G06G26G29G03G23G14G32G16G31G25G02
 126589240.76346  98640970.41146  24089134.496    24089134.529    24089135.808
 117811073.43347  91800844.32147  22418695.651    22418694.861    22418695.518
 120407108.92747  93823727.04446  22912704.498    22912703.718    22912701.301
 116728558.24348  90957307.63047  22212695.883    22212695.688    22212695.164
 124035945.86448  96651388.62745  23603252.002    23603251.811    23603246.309
 125073401.58047  97459799.63643  23800664.186    23800664.157    23800660.755
 121840771.50547  94940846.63445  23185515.535    23185513.661    23185512.990
 129710416.99346                  24683068.666
 107049352.13449  83415094.39348  20370807.156    20370806.718    20370803.468
 116994041.89147  91164193.21147  22263222.253    22263221.489    22263221.414
 130848556.05646 101959911.61142  24899654.670    24899654.050    24899651.479
 15 12 21  0 21 30.0000000  0 11G06G26G29G03G23G14G32G16G31G25G02
 126598106.90347  98647878.75446  24090823.306    24090822.997    24090823.761
 117715655.11447  91726492.39147  22400537.977    22400537.341    22400538.225
 120335609.92347  93768013.29046  22899099.119    22899099.418    22899095.869
 116767150.09548  90987379.18347  22220039.294    22220039.383    22220039.006
 123937713.95048  96574844.29645  23584559.322    23584558.316    23584554.247
 125180758.83147  97543454.31743  23821093.733    23821092.154    23821090.258
 121932876.67547  95012616.87445  23203042.577    23203041.336    23203040.381
 129586263.45946                  24659443.688
 107071425.59748  83432294.52848  20375007.761    20375007.189    20375004.080
 117075406.24147  91227594.11147  22278705.599    22278704.386    22278704.778
 130797845.43546                  24890004.827
 15 12 21  0 22  0.0000000  0 11G06G26G29G03G23G14G32G16G31G25G02
 126607576.74947  98655257.47346  24092624.920    24092625.100    24092626.039
 117620572.94447  91652402.40547  22382444.169    22382443.864    22382444.383
 120264576.66147  93712662.39446  22885581.820    22885581.532    22885579.365
 116806328.93548  91017908.13147  22227494.679    22227494.754    22227494.504
 123839701.84447  96498471.29945  23565907.529    23565906.758    23565903.310
 125288289.82047  97627244.77443  23841555.755    23841555.178    23841553.551
 122025293.58747  95084630.07145  23220629.146    23220627.739    23220625.793
 129462197.89046 100879625.25943  24635832.534    24635832.095    24635832.508
 107093976.81349  83449866.94548  20379298.890    20379298.392    20379295.230
 117157187.99747  91291320.29047  22294267.805    22294266.887    22294267.280
 130747568.51946 101881220.67442  24880436.716    24880435.443    24880433.408
 15 12 21  0 22 30.0000000  0 11G06G26G29G03G23G14G32G16G31G25G02
 126617652.92847  98663108.76046  24094541.843    24094541.040    24094543.968
 117525831.78948  91578578.12747  22364415.952    22364414.978    22364415.735
 120194014.80747  93657678.95046  22872155.861    22872155.201    22872152.731
 116846095.87648  91048895.31447  22235062.107    22235062.134    22235062.114
 123741914.49847  96422273.31445  23547299.006    23547297.333    23547294.755
 125395993.62246  97711169.27743  23862051.776    23862050.350    23862048.965
 122118022.05047  95156886.03545  23238274.266    23238272.636    23238271.533
 129338220.79146 100783019.60343  24612240.374    24612238.627    24612237.289
 107117007.57448  83467813.04248  20383681.730    20383681.161    20383677.823
 117239387.11848  91355371.63447  22309910.107    22309908.648    22309909.326
 130697730.14546 101842385.75342  24870954.167    24870952.445    24870949.131
 15 12 21  0 23  0.0000000  0 11G06G26G29G03G23G14G32G16G31G25G02
 126628332.66447  98671430.41846  24096574.269    24096574.179    24096576.690
 117431431.77148  91505019.69547  22346452.205    22346451.569    22346451.949
 120123924.41347  93603062.92746  22858817.018    22858816.642    22858814.247
 116886447.38648  91080337.99347  22242741.175    22242740.922    22242740.848
 123644351.58647  96346250.28745  23528733.479    23528732.461    23528729.521
 125503867.92547  97795226.80443  23882579.863    23882578.527    23882576.529
 122211057.45847  95229381.20845  23255978.128    23255976.597    23255975.935
 129214335.24646 100686485.25743  24588666.486    24588664.814    24588662.208
 107140515.36949  83486130.87148  20388154.768    20388154.314    20388151.269
 117321999.07147  91419744.63747  22325630.336    22325629.259    22325629.545
 130648329.85946 101803892.02243  24861553.448    24861551.458    24861548.440
 15 12 21  0 23 30.0000000  0 11G06G26G29G03G23G14G32G16G31G25G02
 126639614.57547  98680221.15346  24098721.808    24098721.890    24098724.195
 117337374.36647  91431728.21247  22328553.537    22328552.731    22328553.656
 120054307.74647  93548816.13246  22845569.567    22845568.853    22845566.867
 116927381.31748  91112234.53847  22250530.546    22250530.266    22250530.435
 123547014.80048  96270403.37945  23510211.267    23510210.151    23510206.624
 125611910.37846  97879415.65143  23903139.876    23903138.654    23903136.063
 122304396.08447  95302112.53445  23273740.605    23273739.125    23273738.905
 129090543.11546 100590024.14642  24565109.444    24565109.603    24565107.439
 107164498.10749  83504818.71548  20392718.627    20392718.225    20392714.932
 117405020.60548  91484436.76847  22341428.631    22341427.787    22341428.152
 130599368.27546 101765739.79643  24852236.767    24852234.269    24852230.642
 15 12 21  0 24  0.0000000  0 11G06G26G29G03G23G14G32G16G31G25G02
 126651499.62746  98689481.93246  24100983.569    24100982.923    24100985.947
 117243662.91448  91358706.31647  22310720.802    22310720.090    22310720.915
 119985168.41447  93494941.44946  22832412.151    22832411.771    22832410.469
 116968897.22148  91144584.59747  22258430.712    22258430.602    22258430.571
 123449908.07448  96194735.82545  23491732.929    23491731.726    23491727.435
 125720119.48947  97963734.22543  23923731.840    23923730.564    23923728.065
 122398036.62447  95375079.17945  23291559.569    23291558.275    23291557.387
 128966847.17246 100493637.79942  24541571.116    24541569.397    24541569.814
 107188956.75948  83523877.43548  20397373.124    20397372.619    20397369.194
 117488450.46547  91549447.13147  22357305.091    22357303.651    22357304.159
 130550850.20746 101727933.57143  24843004.076    24843003.109    24842999.505
 15 12 21  0 24 30.0000000  0 11G06G26G29G03G23G14G32G16G31G25G02
 126663986.86447  98699211.91146  24103360.316    24103360.172    24103362.081
 117150299.39047  91285955.50647  22292953.985    22292953.658    22292954.234
 119916508.65347  93441440.39646  22819346.992    22819346.263    22819344.745
 117010993.23948  91177386.65347  22266441.231    22266441.167    22266441.036
 123353032.94547  96119248.69745  23473297.670    23473296.716    23473293.790
 125828493.32446  98048181.08143  23944354.216    23944353.922    23944351.819
 122491976.13947  95448278.77645  23309435.485    23309434.129    23309433.197
 128843249.67146 100397328.25243  24518051.397    24518049.826    24518048.127
 107213889.90749  83543305.91648  20402117.446    20402116.971    20402113.853
 117572285.62247  91614773.22247  22373257.899    22373257.116    22373257.620
 130502774.92846 101690471.75543  24833854.732    24833853.917    24833850.722
 15 12 21  0 25  0.0000000  0 11G06G26G29G03G23G14G32G16G31G25G02
 126677076.43446  98709411.46646  24105850.488    24105849.783    24105852.035
 117057286.16948  91213477.65547  22275254.238    22275253.799    22275254.480
 119848330.65747  93388314.45146  22806373.736    22806373.172    22806371.222
 117053668.05748  91210639.74847  22274562.320    22274562.117    22274561.974
 123256391.80647  96043943.85245  23454907.500    23454906.537    23454902.860
 125937030.17846  98132754.93443  23965007.871    23965007.449    23965004.244
 122586212.01847  95521709.26845  23327368.241    23327366.720    23327365.589
 128719752.82146 100301096.88743  24494550.351    24494549.597    24494547.440
 107239297.20849  83563103.89948  20406952.444    20406951.999    20406948.642
 117656523.80947  91680413.33547  22389287.898    22389287.025    22389287.411
 130455146.70646                  24824793.163
 15 12 21  0 25 30.0000000  0 11G06G26G29G03G23G14G32G16G31G25G02
 126690766.87147  98720079.14546  24108456.429    24108456.194    24108457.802
 116964624.99048  91141274.12347  22257621.837    22257620.928    22257621.704
 119780637.17747  93335566.14646  22793491.522    22793490.942    22793490.271
 117096919.58248  91244342.21547  22282792.570    22282792.615    22282791.993
 123159986.41047  95968822.65845  23436562.115    23436561.206    23436557.438
 126045726.55346                  23985693.468
 122680741.05847  95595368.13945  23345356.574    23345354.895    23345354.299
 128596358.16846 100204944.76343  24471068.716    24471067.949    24471067.248
 107265177.29449  83583270.20348  20411877.080    20411876.609    20411873.348
 117741162.26048  91746365.46147  22405394.431    22405393.551    22405393.568
 130407968.97046                  24815814.068
 15 12 21  0 26  0.0000000  0 11G06G26G29G03G23G14G32G16G31G25G02
 126705057.56047  98731214.45946  24111176.225    24111175.789    24111177.477
 116872318.12848  91069346.69447  22240056.295    22240055.347    22240056.230
 119713430.60647  93283197.31246  22780703.247    22780702.766    22780700.376
 117140746.22648  91278492.82547  22291132.082    22291132.293    22291132.252
 123063819.51048  95893887.40145  23418262.486    23418261.760    23418257.682
 126154582.93046                  24006408.637
 122775561.02547  95669253.85545  23363399.441    23363398.508    23363397.360
 128473070.51646 100108876.55342  24447608.082    24447606.303    24447607.012
 107291529.72049  83603804.56448  20416891.820    20416891.414    20416888.055
 117826198.20947  91812627.22047  22421576.300    22421575.450    22421575.699
 130361237.19746                  24806920.276
 15 12 21  0 26 30.0000000  0 11G06G26G29G03G23G14G32G16G31G25G02
 126719948.66246  98742817.86146  24114008.315    24114008.193    24114012.380
 116780367.81748  90997697.08547  22222559.016    22222557.983    22222558.781
 119646713.87747  93231210.20846  22768006.686    22768006.093    22768004.696
 117185146.48848  91313090.40147  22299581.748    22299581.685    22299581.323
 122967893.65647  95819140.06845  23400008.433    23400008.139    23400003.238
 126263598.31446                  24027153.276
 122870669.02947  95743364.00945  23381498.820    23381497.055    23381496.214
 128349888.17446 100012889.88642  24424167.750    24424168.819    24424132.689
 107318353.55048  83624706.22948  20421996.376    20421995.829    20421992.563
 117911629.16747  91879196.76747  22437832.688    22437831.598    22437832.256
 130314956.93946                  24798114.304
 15 12 21  0 27  0.0000000  0 11G06G26G29G03G23G14G32G16G31G25G02
 126735438.94347  98754888.10746  24116958.377    24116957.983    24116960.304
 116688776.12848  90926326.92247  22205129.046    22205128.574    22205129.739
 119580489.56248  93179607.02446  22755404.819    22755404.522    22755402.288
 117230118.60448  91348133.58247  22308139.822    22308139.422    22308139.127
 122872210.26547  95744581.59845  23381800.507    23381799.833    23381795.352
 126372770.11046                  24047928.594
 122966062.23947  95817696.37045  23399651.785    23399649.685    23399648.776
 128226815.45646                  24400748.101
 107345648.16649  83645974.78048  20427190.217    20427189.809    20427186.423
 117997452.53147  91946071.99347  22454164.962    22454163.797    22454164.119
 130269130.23746                  24789393.003
 15 12 21  0 27 30.0000000  0 11G06G26G29G03G23G14G32G16G31G25G02
 126751529.25447  98767425.88246  24120020.778    24120020.511    24120021.593
 116597546.93247  90855239.23247  22187768.996    22187768.501    22187769.045
 119514761.32647  93128390.30746  22742897.446    22742896.797    22742894.654
 117275662.62648  91383622.42347  22316806.343    22316806.085    22316805.947
 122776773.39547  95670215.09845  23363638.999    23363638.328    23363634.575
 126482096.35746  98557431.50443  24068732.327    24068730.068    24068730.465
 123061739.73947  95892250.28945  23417858.253    23417856.879    23417855.398
 128103851.27346                  24377353.174
 107373413.80948  83667610.33348  20432473.873    20432473.400    20432470.011
 118083667.70147  92013252.62647  22470570.350    22470569.979    22470570.474
 130223758.36446                  24780758.580
 15 12 21  0 28  0.0000000  0 11G06G26G29G03G23G14G32G16G31G25G02
 126768214.25646  98780426.86246  24123194.484    24123194.299    24123195.927
 116506677.82448  90784432.18347  22170477.227    22170476.476    22170477.215
 119449526.82147  93077558.25046  22730483.889    22730482.921    22730481.529
 117321772.06747  91419551.83247  22325580.263    22325580.623    22325580.424
 122681581.04148  95596039.21045  23345524.953    23345523.773    23345520.167
 126591571.37846  98642736.69843  24089564.944    24089563.905    24089562.549
 123157693.92347  95967019.79945  23436118.173    23436117.080    23436115.123
 127981006.40946                  24353977.795
 107401645.40548  83689608.97748  20437846.164    20437845.767    20437842.460
 118170267.03847  92080732.52847  22487050.750    22487049.407    22487049.844
 130178839.61946                  24772210.241
 15 12 21  0 28 30.0000000  0 11G06G26G29G03G23G14G32G16G31G25G02
 126785495.59447  98793892.60146  24126484.374    24126483.981    24126485.895
 116416172.84648  90713908.84247  22153254.828    22153253.958    22153254.627
 119384791.30447  93027115.28246  22718163.925    22718163.957    22718161.793
 117368447.44248  91455922.25947  22334462.866    22334462.376    22334462.678
 122586637.35148  95522057.11645  23327457.463    23327456.767    23327453.177
 126701195.04546  98728157.75043  24110425.111    24110425.008    24110423.075
 123253924.24847  96042004.43345  23454429.681    23454427.619    23454426.928
 127858283.07046                  24330621.659
 107430344.32149  83711971.78148  20443307.490    20443306.906    20443303.573
 118257250.24047  92148511.53147  22503602.570    22503601.733    22503602.045
 130134377.46146                  24763749.993
 15 12 21  0 29  0.0000000  0 11G06G26G29G03G23G14G32G16G31G25G02
 126803376.90747  98807826.06446  24129886.745    24129887.004    24129889.562
 116326038.15248  90643674.02447  22136102.812    22136102.143    22136102.633
 119320560.21647  92977065.13646  22705941.898    22705940.982    22705938.939
 117415690.81047  91492735.24947  22343453.339    22343452.666    22343452.827
 122491948.82248  95448273.88845  23309438.837    23309438.295    23309434.836
 126810968.59746  98813694.68243  24131314.947    24131313.476    24131312.133
 123350431.96247  96117205.22644  23472794.486    23472793.291    23472792.037
 127735678.42446  99534297.59042  24307292.501    24307291.731    24307291.366
 107459513.56848  83734701.09148  20448857.967    20448857.630    20448854.371
 118344618.59847  92216590.56147  22520228.296    22520227.795    22520228.178
 130090376.92946 101369129.29143  24755376.975    24755375.961    24755372.183
 15 12 21  0 29 30.0000000  0 11G06G26G29G03G23G14G32G16G31G25G02
 126821851.91446  98822222.03146  24133402.415    24133402.182    24133404.634
 116236270.90448  90573725.51647  22119020.451    22119019.845    22119020.444
 119256831.79147  92927406.84646  22693813.749    22693813.678    22693811.908
 117463495.50548  91529985.62847  22352549.873    22352549.740    22352549.631
 122397512.52448  95374687.17245  23291468.751    23291467.340    23291463.893
 126920888.77546  98899347.05143  24152232.572    24152230.891    24152230.242
 123447209.29547  96192616.05744  23491210.919    23491209.193    23491207.724
 127613199.22246                  24283983.382
 107489147.28248  83757792.31148  20454497.225    20454496.936    20454493.463
 118432364.94047  92284964.21847  22536925.901    22536925.580    22536925.424
 130046834.85746 101335199.97543  24747091.403    24747089.864    24747086.011
 15 12 21  0 30  0.0000000  0 11G06G26G29G03G23G14G32G16G31G25G02
 126840923.03746  98837082.34446  24137031.357    24137031.061    24137033.068
 116146876.79248  90504067.79547  22102009.401    22102008.741    22102009.399
 119193611.87947  92878144.79346  22681783.609    22681783.471    22681781.254
 117511863.12948  91567674.61547  22361754.092    22361753.742    22361753.912
 122303334.28248  95301301.63045  23273547.150    23273546.470    23273541.925
 127030953.07146  98985111.91543  24173177.209    24173172.418    24173146.805
 123544257.15847  96268237.68344  23509678.199    23509677.237    23509676.182
 127490843.78346                  24260698.664
 107519247.96849  83781247.38848  20460225.163    20460224.663    20460221.341
 118520490.05947  92353633.11147  22553696.408    22553695.255    22553695.366
 130003757.53246 101301633.09943  24738894.408    24738893.418    24738889.056
 15 12 21  0 30 30.0000000  0 11G06G26G29G03G23G14G32G16G31G25G02
 126860588.68446  98852406.03046  24140772.790    24140773.137    24140777.387
 116057856.38248  90434701.24447  22085069.074    22085068.500    22085069.434
 119130900.54247  92829278.84146  22669850.058    22669849.553    22669847.326
 117560790.59248  91605799.85547  22371064.662    22371064.299    22371064.455
 122209414.84948  95228117.61545  23255674.700    23255673.716    23255668.928
 127141163.15346                  24194147.823
 123641571.56347  96344067.09544  23528196.332    23528195.063    23528193.783
 127368614.80646                  24237438.031
 107549813.41349  83805064.59148  20466041.707    20466041.206    20466037.833
 118608990.02047  92422594.12947  22570536.450    22570536.245    22570536.644
 129961144.09246 101268427.49843  24730785.650    24730783.844    24730780.982
 15 12 21  0 31  0.0000000  0 11G06G26G29G03G23G14G32G16G31G25G02
 126880847.82646  98868192.34946  24144629.279    24144628.482    24144631.670
 115969211.42448  90365627.19647  22068200.791    22068200.060    22068200.903
 119068700.48648  92780811.24146  22658014.345    22658013.769    22658011.478
 117610275.91148  91644359.82647  22380481.592    22380481.068    22380481.095
 122115756.22348  95155136.87445  23237851.566    23237850.705    23237847.507
 127251514.66146                  24215146.833
 123739149.12847  96420101.48944  23546765.339    23546763.222    23546762.417
 127246514.27446                  24214203.751
 107580842.48449  83829243.01648  20471946.265    20471945.656    20471942.608
 118697861.69347  92491844.76747  22587448.087    22587447.286    22587448.154
 129918996.54446 101235585.32743  24722765.095    24722763.758    24722760.964
 15 12 21  0 31 30.0000000  0 11G06G26G29G03G23G14G32G16G31G25G02
 126901699.80746  98884440.35746  24148596.195    24148595.379    24148601.314
 115880945.27148  90296848.41647  22051404.038    22051403.670    22051404.379
 119007015.97748  92732745.71046  22646275.337    22646275.098    22646272.824
 117660317.81748  91683353.47347  22390004.065    22390003.880    22390003.805
 122022361.95348  95082362.20045  23220079.463    23220078.625    23220074.431
 127362003.96646                  24236172.272
 123836988.16047  96496339.64344  23565382.943    23565381.902    23565380.759
 127124543.07346                  24190993.775
 107612335.47348  83853782.93748  20477939.171    20477938.723    20477935.457
 118787103.58347  92561383.90847  22604430.591    22604429.937    22604429.939
 129877317.86446 101203108.66143  24714833.664    24714831.560    24714829.435
 15 12 21  0 32  0.0000000  0 11G06G26G29G03G23G14G32G16G31G25G02
 126923142.68946  98901148.84246  24152677.292    24152676.594    24152679.504
 115793058.07447  90228364.86347  22034679.794    22034679.198    22034679.951
 118945846.61447  92685081.49346  22634634.920    22634634.461    22634632.527
 117710913.08548  91722778.36047  22399631.751    22399631.874    22399631.949
 121929232.46348  95009793.83545  23202357.051    23202356.605    23202353.154
 127472628.84146                  24257224.059
 123935084.50947  96572778.40344  23584050.460    23584048.480    23584047.755
 127002706.72546                  24167810.492
 107644289.29649  83878681.88348  20484019.952    20484019.407    20484016.248
 118876711.38147  92631208.14047  22621482.693    22621481.418    22621482.307
 129836107.88447 101170997.51443  24706991.071    24706988.993    24706985.677
 15 12 21  0 32 30.0000000  0 11G06G26G29G03G23G14G32G16G31G25G02
 126945176.30546  98918317.86546  24156870.910    24156870.741    24156872.694
 115705552.50348  90160178.66947  22018028.137    22018027.359    22018028.257
 118885194.72148  92637820.23546  22623094.070    22623093.250    22623090.669
 117762060.12948  91762633.17947  22409365.041    22409364.845    22409364.756
 121836370.60848  94937434.03745  23184686.211    23184685.397    23184681.845
 127583386.29146  99415581.58042  24278301.985    24278301.224    24278297.247
 124033435.60847  96649415.59544  23602766.791    23602764.978    23602763.769
 126881008.51046                  24144652.354
 107676703.12849  83903939.15348  20490188.234    20490187.770    20490184.452
 118966682.58847  92701315.32047  22638604.163    22638602.912    22638603.524
 129795367.35446 101139251.90543  24699238.515    24699237.359    24699233.585
 15 12 21  0 33  0.0000000  0 11G06G26G29G03G23G14G32G16G31G25G02
 126967797.84346  98935944.97046  24161174.780    24161174.506    24161177.148
 115618429.44248  90092290.65347  22001448.789    22001448.253    22001449.219
 118825062.25648  92590963.94046  22611650.826    22611650.288    22611647.809
 117813755.74848  91802915.50447  22419202.468    22419201.977    22419201.915
 121743777.07647  94865283.30845  23167066.394    23167065.234    23167061.932
 127694278.01546  99501990.50242  24299403.489    24299402.152    24299401.730
 124132037.49847  96726248.25744  23621528.984    23621527.434    23621526.322
 126759451.68746                  24121519.072
 107709575.81248  83929554.08448  20496443.918    20496443.320    20496440.265
 119057013.62047  92771702.91447  22655793.631    22655792.525    22655793.343
 129755096.63647 101107872.25543  24691575.103    24691573.811    24691571.330
 15 12 21  0 33 30.0000000  0 11G06G26G29G03G23G14G32G16G31G25G02
 126991008.64346  98954031.06446  24165591.313    24165591.805    24165595.836
 115531692.83548  90024703.53747  21984943.771    21984942.836    21984943.754
 118765453.41748  92544515.58246  22600307.419    22600306.951    22600304.488
 117866000.54447  91843625.74947  22429144.317    22429143.640    22429143.907
 121651456.80948  94793345.48445  23149498.629    23149497.394    23149493.083
 127805303.32646  99588504.47142  24320529.843    24320528.638    24320528.262
 124230889.64447  96803275.80844  23640340.034    23640338.640    23640337.785
 126638035.07547  98678975.27143  24098413.366    24098411.514    24098410.784
 107742908.57148  83955527.61148  20502787.129    20502786.566    20502783.293
 119147704.03347  92842370.31747  22673051.478    22673050.062    22673051.409
 129715300.02247 101076861.89644  24684002.135    24684000.933    24683999.065
 15 12 21  0 34  0.0000000  0 11G06G26G29G03G23G14G32G16G31G25G02
 127014809.80046  98972577.27946  24170121.214    24170120.515    24170124.292
 115445346.52948  89957420.56347  21968512.595    21968511.972    21968512.761
 118706372.04248  92498478.27446  22589064.464    22589064.021    22589061.696
 117918793.73347  91884763.28947  22439190.591    22439190.163    22439190.240
 121559413.15148  94721623.21245  23131983.356    23131982.252    23131977.757
 127916459.00346  99675119.39042  24341682.137    24341681.405    24341679.713
 124329989.46047  96880495.66844  23659199.149    23659197.693    23659197.167
 126516761.40547  98584475.97843  24075335.242    24075334.260    24075334.063
 107776701.35249  83981859.43648  20509217.634    20509217.201    20509214.110
 119238752.57247  92913316.57146  22690377.532    22690377.026    22690378.210
 129675980.78146 101046223.66444  24676519.861    24676519.089    24676514.816
 15 12 21  0 34 30.0000000  0 11G06G26G29G03G23G14G32G16G31G25G02
 127039196.35246  98991579.63446  24174763.034    24174763.570    24174764.917
 115359389.50148  89890441.07147  21952155.680    21952154.916    21952155.849
 118647817.01648  92452851.17046  22577921.474    22577921.044    22577919.071
 117972130.06047  91926324.03047  22449339.598    22449339.708    22449339.889
 121467645.16248  94650115.72745  23114519.812    23114519.102    23114515.288
 128027741.58646  99761833.23242  24362858.424    24362856.811    24362855.843
 124429333.12347  96957905.98244  23678103.637    23678101.755    23678102.078
 126395633.24247                  24052285.946
 107810950.67948  84008547.09448  20515735.120    20515734.606    20515731.585
 119330153.72547  92984537.63546  22707771.131    22707770.309    22707771.040
 129637137.65246 101015957.03244  24669126.563    24669125.142    24669121.588
 15 12 21  0 35  0.0000000  0 11G06G26G29G03G23G14G32G16G31G25G02
 127064168.23746  99011038.24046  24179513.953    24179514.054    24179517.562
 115273824.03348  89823766.74147  21935873.014    21935872.397    21935873.112
 118589791.01247  92407636.29546  22566880.217    22566879.435    22566877.008
 118026007.99448  91968306.78647  22459593.002    22459592.496    22459592.482
 121376155.95648  94578825.48245  23097110.214    23097109.327    23097105.381
 128139149.06846  99848644.37042  24384058.583    24384057.009    24384055.429
 124528917.73147  97035504.19144  23697054.515    23697053.765    23697052.239
 126274654.51946                  24029264.080
 107845655.47349  84035589.79048  20522339.323    20522338.867    20522335.758
 119421905.68247  93056032.23346  22725231.754    22725231.014    22725231.477
 129598771.47847 100986061.86743  24661826.554    24661825.737    24661821.857
 15 12 21  0 35 30.0000000  0 11G06G26G29G03G23G14G32G16G31G25G02
 127089726.16746  99030954.18746  24184377.383    24184377.174    24184379.672
 115188652.46148  89757399.26147  21919665.315    21919664.809    21919665.462
 118532296.74148  92362835.60246  22555938.818    22555937.942    22555935.964
 118080426.31747  92010710.70847  22469947.861    22469947.548    22469947.832
 121284948.14148  94507754.48345  23079754.145    23079753.187    23079749.635
 128250680.97246  99935552.63142  24405282.059    24405280.964    24405279.946
 124628741.10747  97113288.58144  23716049.770    23716048.240    23716048.488
 126153825.66547  98301669.24742  24006271.827    24006270.753    24006266.585
 107880815.74148  84062987.62048  20529029.939    20529029.402    20529026.436
 119514005.83547  93127798.01447  22742757.717    22742757.122    22742758.353
 129560884.21247 100956539.90044  24654616.863    24654616.281    24654611.113
 15 12 21  0 36  0.0000000  0 11G06G26G29G03G23G14G32G16G31G25G02
 127115867.10846  99051323.65946  24189351.499    24189350.507    24189354.426
 115103877.95248  89691341.14747  21903533.085    21903532.732    21903533.411
 118475337.12048  92318451.41046  22545099.645    22545099.191    22545096.917
 118135383.78647  92053534.71447  22480406.075    22480405.840    22480405.845
 121194024.85548  94436905.17345  23062451.896    23062450.928    23062446.798
 128362335.16546 100022555.84142  24426528.870    24426528.105    24426526.472
 124728801.27347  97191257.51444  23735091.270    23735089.609    23735088.532
 126033151.41847  98207637.37942  23983307.761    23983306.801    23983303.981
 107916431.27548  84090740.21048  20535807.230    20535806.734    20535803.570
 119606455.02447  93199836.85847  22760350.741    22760349.254    22760350.150
 129523477.36346 100927391.79744  24647497.007    24647495.607    24647492.722
 15 12 21  0 36 30.0000000  0 11G06G26G29G03G23G14G32G16G31G25G02
 127142592.29146  99072149.46846  24194436.419    24194437.120    24194438.655
 115019501.24748  89625593.05347  21887476.831    21887476.415    21887477.313
 118418913.06547  92274484.44446  22534362.435    22534362.448    22534359.860
 118190876.93747  92096776.09647  22490965.926    22490965.768    22490965.970
 121103387.29348  94366278.49045  23045204.159    23045203.289    23045199.011
 128474109.61146 100109652.97442  24447798.931    24447798.566    24447797.628
 124829094.37647  97269408.15344  23754175.758    23754174.347    23754172.855
 125912632.34547  98113726.44443  23960374.549    23960373.940    23960370.749
 107952499.37448  84118845.39048  20542670.584    20542670.089    20542666.796
 119699247.57047  93272143.56247  22778007.552    22778006.471    22778007.374
 129486551.78647 100898618.58643  24640471.223    24640469.940    24640465.002
 15 12 21  0 37  0.0000000  0 11G06G26G29G03G23G14G32G16G31G25G02
 127169898.14547  99093427.20646  24199633.541    24199633.190    24199635.115
 114935525.26448  89560157.24847  21871496.759    21871496.335    21871497.058
 118363028.33748  92230937.82346  22523728.608    22523727.885    22523725.658
 118246904.64347  92140433.99047  22501627.888    22501627.578    22501627.639
 121013038.48148  94295876.77245  23028011.029    23028010.384    23028006.714
 128586002.75046 100196842.50942  24469091.768    24469090.387    24469088.344
 124929617.41847  97347737.59644  23773304.764    23773303.969    23773302.421
 125792270.71746  98019937.57043  23937468.824    23937467.467    23937467.550
 107989020.30848  84147303.44148  20549620.080    20549619.648    20549616.432
 119792380.42247  93344714.96647  22795729.927    22795729.120    22795729.472
 129450109.09947 100870221.21843  24633537.009    24633535.873    24633530.038
 15 12 21  0 37 30.0000000  0 11G06G26G29G03G23G14G32G16G31G25G02
 127197784.91547  99115157.39146  24204939.162    24204938.884    24204941.347
 114851952.47548  89495035.58747  21855593.755    21855593.058    21855593.793
 118307685.28647  92187813.31546  22513196.781    22513196.586    22513194.068
 118303465.50247  92184507.33947  22512391.129    22512390.683    22512390.908
 120922981.49948  94225702.47345  23010874.094    23010873.327    23010868.792
 128698012.54246 100284122.61842  24490407.291    24490405.745    24490403.583
 125030367.96647  97426243.73044  23792477.569    23792476.418    23792474.497
 125672067.86947  97926271.22443  23914597.781    23914592.940    23914648.626
 108025993.36748  84176113.72848  20556655.688    20556655.236    20556652.022
 119885852.50047  93417550.76247  22813517.164    22813516.387    22813516.779
 129414150.98346 100842200.85043  24626693.958    24626692.913    24626690.244
 15 12 21  0 38  0.0000000  0 11G06G26G29G03G23G14G32G16G31G25G02
 127226250.03347  99137338.08946  24210355.742    24210356.556    24210358.631
 114768783.40148  89430228.49147  21839767.088    21839766.220    21839767.343
 118252884.27548  92145111.13646  22502769.002    22502767.943    22502765.651
 118360555.85647  92228993.23747  22523255.120    22523254.958    22523254.691
 120833217.07248  94155756.13045  22993792.752    22993792.129    22993788.186
 128810136.20346 100371491.27942  24511743.449    24511741.737    24511740.576
 125131343.65547  97504925.72844  23811693.010    23811691.378    23811690.704
 125552026.93346                  23891757.019
 108063416.15148  84205274.38948  20563776.969    20563776.662    20563773.171
 119979660.27647  93490648.37847  22831366.829    22831366.041    22831367.581
 129378678.48747 100814558.87443  24619945.610    24619943.649    24619940.415
 15 12 21  0 38 30.0000000  0 11G06G26G29G03G23G14G32G16G31G25G02
 127255289.01946  99159966.18846  24215881.543    24215881.410    24215882.671
 114686015.99848  89365734.41847  21824016.966    21824016.314    21824017.085
 118198623.21148  92102829.61346  22492443.045    22492442.767    22492440.625
 118418169.43047  92273886.81547  22534218.726    22534218.514    22534218.648
 120743743.26348  94086036.21845  22976766.327    22976765.535    22976761.909
 128922368.51246 100458944.64942  24533102.002    24533099.919    24533098.712
 125232538.47247  97583779.36944  23830949.658    23830948.021    23830947.082
 125432159.41446                  23868943.987
 108101283.59148  84234781.47048  20570982.850    20570982.514    20570979.255
 120073795.85147  93564001.19747  22849280.570    22849279.279    22849279.776
 129343690.16947 100787294.78743  24613287.858    24613286.208    24613282.722
 15 12 21  0 39  0.0000000  0 11G06G26G29G03G23G14G32G16G31G25G02
 127284906.89246  99183045.08146  24221516.846    24221516.605    24221519.805
 114603659.55348  89301560.58147  21808345.217    21808344.444    21808345.418
 118144912.00647  92060976.58446  22482222.668    22482222.198    22482219.530
 118476311.61148  92319192.34147  22545282.984    22545282.759    22545283.093
 120654570.06148  94016550.58545  22959797.165    22959796.194    22959792.345
 129034715.26346 100546487.75242  24554478.705    24554478.511    24554477.234
 125333953.74647  97662803.99444  23850247.872    23850246.223    23850246.400
 125312454.76347                  23846164.768
 108139602.13248  84264640.05948  20578274.737    20578274.312    20578271.027
 120168264.27647  93637613.23347  22867256.039    22867255.512    22867256.802
 129309195.14347 100760415.81243  24606723.533    24606723.002    24606718.253
 15 12 21  0 39 30.0000000  0 11G06G26G29G03G23G14G32G16G31G25G02
 127315101.10346  99206573.44146  24227262.741    24227262.998    24227266.465
 114521713.13948  89237706.22447  21792751.344    21792750.628    21792751.238
 118091750.68548  92019552.43846  22472106.260    22472105.572    22472102.923
 118534977.10947  92364905.50247  22556446.513    22556446.682    22556446.469
 120565696.69048  93947298.56945  22942885.177    22942884.370    22942880.805
 129147170.72646 100634115.44942  24575878.227    24575876.695    24575876.863
 125435585.90247  97741997.76544  23869587.812    23869586.156    23869587.120
 125192922.45747                  23823417.543
 108178367.52348  84294846.84748  20585651.861    20585651.275    20585647.635
 120263060.01547  93711480.07346  22885295.744    22885294.819    22885295.010
 129275188.49046 100733916.70443  24600251.998    24600250.533    24600247.015
 15 12 21  0 40  0.0000000  0 11G06G26G29G03G23G14G32G16G31G25G02
 127345869.01647  99230548.66846  24233118.012    24233117.110    24233120.691
 114440178.71148  89174172.89747  21777235.702    21777234.849    21777235.733
 118039139.81248  91978557.04546  22462094.467    22462093.936    22462091.365
 118594164.56547  92411025.67447  22567709.810    22567709.480    22567709.514
 120477125.40948  93878281.95645  22926030.687    22926029.709    22926025.409
 129259733.21646 100721826.38542  24597299.664    24597298.907    24597297.928
 125537432.87947  97821359.62344  23888968.439    23888967.343    23888966.933
 125073562.36847  97459904.12343  23800703.588    23800702.854    23800702.464
 108217579.14248  84325401.31048  20593113.411    20593112.963    20593109.615
 120358180.45847  93785599.76547  22903396.583    22903396.002    22903395.846
 129241674.04446 100707801.49843  24593874.487    24593872.794    24593871.626
 15 12 21  0 40 30.0000000  0 11G06G26G29G03G23G14G32G16G31G25G02
 127377210.60347  99254970.73346  24239082.279    24239081.770    24239083.970
 114359059.25848  89110962.94347  21761798.975    21761798.403    21761799.207
 117987082.87548  91937993.23146  22452188.276    22452187.672    22452185.581
 118653872.60647  92457551.70247  22579071.561    22579071.326    22579071.217
 120388859.44448  93809503.22345  22909234.389    22909233.248    22909229.059
 129372401.65146 100809619.84142  24618739.185    24618737.937    24618736.718
 125639490.28547  97900884.70344  23908389.575    23908388.161    23908387.833
 124954378.14247  97367033.97143  23778024.337    23778022.552    23778021.934
 108257236.81148  84356303.33648  20600660.052    20600659.533    20600656.168
 120453624.78947  93859972.00047  22921559.151    22921557.778    22921558.485
 129208653.08446 100682070.88643  24587591.385    24587589.569    24587586.977
 15 12 21  0 41  0.0000000  0 11G06G26G29G03G23G14G32G16G31G25G02
 127409123.97446  99279838.43646  24245154.693    24245154.509    24245156.046
 114278355.72448  89048077.05347  21746441.803    21746440.989    21746441.795
 117935580.53548  91897861.34446  22442387.999    22442387.544    22442384.616
 118714097.24047  92504480.04947  22590531.948    22590531.961    22590532.143
 120300900.77548  93740964.00146  22892496.645    22892495.992    22892491.639
 129485174.08746 100897494.49142  24640198.856    24640197.300    24640196.654
 125741756.45847  97980572.65744  23927849.702    23927848.124    23927848.213
 124835369.48447  97274299.65344  23755376.476    23755375.252    23755373.582
 108297338.51348  84387551.39948  20608291.013    20608290.649    20608287.319
 120549388.98747  93934593.43147  22939783.141    22939781.805    22939781.728
 129176125.21646 100656724.23543  24581399.925    24581399.910    24581394.377
 15 12 21  0 41 30.0000000  0 11G06G26G29G03G23G14G32G16G31G25G02
 127441607.90847  99305150.37146  24251336.803    24251336.838    24251338.140
 114198070.80448  88985517.33247  21731163.808    21731163.459    21731164.282
 117884636.37848  91858164.52546  22432693.530    22432693.226    22432690.488
 118774837.46347  92551810.14047  22602090.417    22602090.196    22602090.139
 120213251.45048  93672665.83745  22875816.999    22875816.049    22875812.187
 129598048.80546 100985448.90042  24661678.977    24661677.788    24661676.513
 125844228.76047  98060421.21344  23947350.275    23947348.741    23947348.265
 124716541.73747  97181706.26143  23732764.926    23732763.256    23732763.735
 108337883.98948  84419145.28248  20616006.655    20616006.271    20616002.966
 120645470.77347  94009462.01547  22958066.508    22958064.929    22958066.793
 129144092.80747 100631763.30143  24575306.318    24575304.301    24575301.938
 15 12 21  0 42  0.0000000  0 11G06G26G29G03G23G14G32G16G31G25G02
 127474659.29346  99330904.94846  24257625.862    24257626.252    24257627.219
 114118203.24748  88923282.82347  21715966.037    21715965.255    21715966.012
 117834248.89347  91818901.53347  22423105.047    22423104.661    22423102.407
 118836087.79347  92599537.67747  22613745.693    22613745.421    22613745.752
 120125911.66348  93604608.90045  22859196.347    22859195.655    22859192.035
 129711021.16146 101073479.54142  24683176.349    24683175.755    24683173.592
 125946901.09847  98140425.59544  23966887.712    23966886.236    23966886.229
 124597896.04847  97089255.92843  23710187.709    23710186.499    23710184.197
 108378869.01048  84451081.68148  20623805.923    20623805.397    20623802.131
 120741864.94947  94084574.04947  22976409.533    22976408.394    22976410.017
 129112555.73247 100607188.85844  24569306.275    24569304.837    24569300.995
 15 12 21  0 42 30.0000000  0 11G06G26G29G03G23G14G32G16G31G25G02
 127508278.56046  99357101.80046  24264022.126    24264022.322    24264025.253
 114038757.54148  88861376.81947  21700848.089    21700847.519    21700848.221
 117784423.15848  91780076.37547  22413623.867    22413623.440    22413621.047
 118897849.05248  92647663.33047  22625498.709    22625498.161    22625498.499
 120038886.44148  93536797.12045  22842636.569    22842635.622    22842632.056
 129824091.75946 101161586.72742  24704693.544    24704691.324    24704690.480
 126049773.38647  98220585.55844  23986464.177    23986462.088    23986461.919
 124479434.22747  96996948.12644  23687644.324    23687644.239    23687640.098
 108420295.15349  84483361.51848  20631689.070    20631688.797    20631685.373
 120838571.86647  94159929.73846  22994812.775    22994811.869    22994812.965
 129081515.99346 100583001.67644  24563397.695    24563396.158    24563393.546
 15 12 21  0 43  0.0000000  0 11G06G26G29G03G23G14G32G16G31G25G02
 127542465.54546  99383741.10346  24270529.663    24270529.375    24270529.608
 113959737.26748  88799802.61048  21685810.880    21685810.355    21685811.333
 117735161.17748  91741690.34047  22404249.671    22404249.085    22404246.659
 118960119.49147  92696185.67247  22637348.043    22637347.792    22637348.012
 119952178.59948  93469232.66645  22826136.518    22826135.886    22826131.470
 129937259.24546 101249769.27042  24726228.498    24726226.389    24726225.144
 126152844.48747  98300900.53544  24006077.606    24006076.724    24006075.724
 124361157.37946  96904783.11444  23665136.910    23665136.006    23665131.967
 108462159.30548  84515981.17748  20639657.110    20639656.658    20639653.590
 120935589.70347  94235527.64747  23013274.775    23013273.664    23013274.247
 129050976.03246 100559203.89543  24557586.982    24557586.014    24557583.104
 15 12 21  0 43 30.0000000  0 11G06G26G29G03G23G14G32G16G31G25G02
 127577217.66946  99410821.47346  24277140.936    24277141.517    24277144.831
 113881141.58648  88738559.32148  21670854.631    21670853.873    21670854.975
 117686463.08548  91703743.63647  22394982.669    22394981.912    22394979.630
 119022894.72047  92745101.33647  22649294.111    22649293.937    22649293.787
 119865788.10548  93401915.47545  22809696.875    22809696.341    22809692.034
 130050519.76046 101338024.24742  24747780.758    24747778.324    24747778.276
 126256109.98547  98381367.63444  24025728.759    24025727.942    24025725.727
 124243074.03147                  23642666.443
 108504464.89648  84548946.74348  20647707.389    20647706.811    20647704.330
 121032914.22247  94311364.90447  23031795.661    23031794.890    23031796.092
 129020936.23147 100535796.45243  24551871.198    24551869.893    24551867.954
 15 12 21  0 44  0.0000000  0 11G06G26G29G03G23G14G32G16G31G25G02
 127612533.37646  99438340.13046  24283862.008    24283862.131    24283862.791
 113802974.76348  88677650.06947  21655979.908    21655979.315    21655980.335
 117638333.26748  91666239.70947  22385824.216    22385823.719    22385820.836
 119086175.19047  92794410.70747  22661336.142    22661335.421    22661335.709
 119779719.94148  93334849.40545  22793318.390    22793317.468    22793313.762
 130163874.20945 101426352.38842  24769349.772    24769349.711    24769348.155
 126359565.71547                  24045416.489
 124125183.10047                  23620232.551
 108547211.28848  84582256.48648  20655841.038    20655840.579    20655837.794
 121130545.60747  94387441.60047  23050374.169    23050372.611    23050373.226
 128991398.87246 100512780.43044  24546248.653    24546248.313    24546247.832
 15 12 21  0 44 30.0000000  0 11G06G26G29G03G23G14G32G16G31G25G02
 127648410.19346  99466296.04446  24290688.136    24290687.781    24290690.210
 113725236.25248  88617074.60447  21641186.817    21641186.238    21641186.991
 117590771.15748  91629178.18747  22376773.409    22376772.801    22376770.322
 119149956.00547  92844110.03547  22673472.916    22673472.861    22673472.834
 119693973.58248  93268034.08045  22777001.293    22777000.747    22776996.341
 130277317.99446 101514750.08442  24790937.895    24790937.847    24790936.749
 126463211.30747                  24065139.862
 124007487.11347                  23597834.969
 108590392.11448  84615904.37448  20664057.823    20664057.390    20664054.163
 121228478.39647  94463753.40447  23069009.741    23069008.100    23069009.885
 128962360.86647 100490152.58844  24540725.417    24540724.540    24540720.664
 15 12 21  0 45  0.0000000  0 11G06G26G29G03G23G14G32G16G31G25G02
 127684846.92546  99494688.03946  24297622.651    24297622.824    24297624.194
 113647928.08948  88556834.25348  21626475.831    21626475.024    21626475.981
 117543779.44048  91592561.11247  22367831.343    22367830.587    22367828.458
 119214235.61647  92894198.11347  22685705.398    22685704.944    22685705.048
 119608552.48248  93201472.21946  22760746.390    22760745.257    22760741.426
 130390849.96846 101603216.50442  24812543.292    24812542.213    24812539.672
 126567043.72547                  24084897.026
 123889986.63447                  23575475.794
 108634007.28548  84649890.32748  20672357.229    20672356.800    20672353.683
 121326710.02747  94540297.95946  23087702.279    23087701.183    23087700.963
 128933826.46247 100467917.24743  24535296.556    24535294.698    24535290.511
 15 12 21  0 45 30.0000000  0 11G06G26G29G03G23G14G32G16G31G25G02
 127721843.43346  99523516.58746  24304661.543    24304662.008    24304664.217
 113571053.24048  88496931.67848  21611847.228    21611846.365    21611847.058
 117497359.90348  91556389.77446  22358998.117    22358997.587    22358995.183
 119279011.65047  92944672.92347  22698032.226    22698031.741    22698031.532
 119523458.97048  93135165.60945  22744553.465    22744552.582    22744548.581
 130504468.42746 101691750.28842  24834164.714    24834163.501    24834161.065
 126671058.83847                  24104691.865
 123772683.84947  96446226.55843  23553153.327    23553152.219    23553151.380
 108678056.63848  84684214.50948  20680739.697    20680739.188    20680735.988
 121425237.96047  94617073.17946  23106451.213    23106450.728    23106449.875
 128905796.54246 100446075.16543  24529961.561    24529960.343    24529958.097
 15 12 21  0 46  0.0000000  0 11G06G26G29G03G23G14G32G16G31G25G02
 127759397.63346  99552779.40046  24311808.746    24311808.402    24311811.048
 113494613.94548  88437368.60748  21597301.079    21597300.522    21597301.316
 117451514.32948  91520665.41447  22350274.666    22350273.862    22350271.887
 119344282.40847  92995533.25047  22710452.178    22710451.881    22710452.262
 119438696.01648  93069116.58446  22728423.918    22728423.242    22728418.752
 130618172.31946 101780350.67142  24855801.163    24855800.033    24855799.391
 126775255.29847  98785874.6664   24124519.121    24124517.899    24124516.761
 123655581.10547  96354976.38643  23530869.967    23530868.155    23530867.440
 108722539.72849  84718876.68048  20689204.624    20689204.008    20689200.756
 121524060.29647  94694077.63646  23125256.243    23125255.108    23125256.057
 128878273.20646 100424628.14443  24524724.419    24524723.189    24524722.342
 15 12 21  0 46 30.0000000  0 11G06G26G29G03G23G14G32G16G31G25G02
 127797506.82146  99582474.91846  24319061.146    24319061.641    24319062.199
 113418608.79948  88378143.23947  21582838.328    21582837.722    21582838.756
 117406244.42548  91485390.18547  22341660.114    22341659.320    22341657.000
 119410043.67247  93046775.79747  22722966.120    22722965.732    22722966.070
 119354264.13148  93003325.56245  22712356.825    22712356.362    22712351.935
 130731957.62546 101869014.48442  24877453.707    24877452.196    24877451.482
 126879626.71947  98867202.37443  24144379.657    24144378.501    24144376.637
 123538687.22947  96263892.06443  23508624.286    23508623.104    23508622.937
 108767453.40648  84753874.33848  20697751.555    20697751.104    20697747.761
 121623172.88747  94771308.23546  23144116.726    23144115.576    23144116.030
 128851253.01546 100403572.10543  24519584.470    24519583.428    24519580.315
 15 12 21  0 47  0.0000000  0 11G06G26G29G03G23G14G32G16G31G25G02
 127836170.59946  99612602.35846  24326419.015    24326418.749    24326420.600
 113343044.14048  88319261.99548  21568458.604    21568458.215    21568459.109
 117361552.29947  91450565.11447  22333154.981    22333154.593    22333152.753
 119476294.74747  93098400.01347  22735573.349    22735573.282    22735573.321
 119270167.12748  92937795.45846  22696353.486    22696352.568    22696348.758
 130845824.64146 101957742.06042  24899122.042    24899120.328    24899118.609
 126984175.00946  98948668.61643  24164276.127    24164274.617    24164272.079
 123421994.69347  96172961.86444  23486418.562    23486417.701    23486416.895
 108812797.92648  84789207.54948  20706380.067    20706379.778    20706376.651
 121722574.64447  94848764.07446  23163032.236    23163031.003    23163031.817
 128824745.16346 100382917.36943  24514539.461    24514537.810    24514535.601
 15 12 21  0 47 30.0000000  0 11G06G26G29G03G23G14G32G16G31G25G02
 127875386.43546  99643159.99746  24333881.480    24333881.630    24333882.994
 113267918.93448  88260723.21348  21554162.552    21554161.922    21554162.763
 117317439.40548  91416191.64147  22324760.795    22324760.172    22324758.237
 119543031.84947  93150402.92447  22748272.996    22748272.428    22748272.482
 119186406.23148  92872527.26946  22680414.253    22680413.527    22680409.418
 130959769.53246 102046530.13741  24920806.328    24920805.914    24920801.102
 127088894.60347  99030268.37144  24184203.786    24184202.793    24184200.071
 123305512.78347  96082197.16044  23464253.174    23464251.373    23464252.038
 108858571.08148  84824874.63748  20715090.885    20715090.395    20715087.205
 121822262.13047  94926442.60346  23182001.824    23182000.718    23182001.716
 128798745.41746 100362658.88643  24509591.036    24509588.738    24509588.577
 15 12 21  0 48  0.0000000  0 11G06G26G29G03G23G14G32G16G31G25G02
 127915154.18646  99674147.62846  24341449.740    24341450.034    24341451.670
 113193236.22348  88202529.08848  21539950.671    21539950.117    21539950.875
 117273907.99948  91382271.14847  22316477.022    22316476.283    22316474.045
 119610254.31847  93202784.06247  22761065.242    22761064.811    22761064.823
 119102985.09648  92807523.80946  22664539.752    22664538.923    22664535.134
 131073792.82546 102135379.33141  24942503.363    24942502.159    24942500.762
 127193784.60447  99112000.97643  24204162.449    24204161.691    24204159.963
 123189242.78747  95991597.52244  23442127.082    23442124.908    23442124.182
 108904774.43248  84860877.31448  20723883.146    20723882.584    20723879.332
 121922233.72447  95004342.28946  23201026.453    23201025.151    23201026.487
 128773255.57846 100342797.54143  24504739.784    24504738.986    24504735.772
 15 12 21  0 48 30.0000000  0 11G06G26G29G03G23G14G32G16G31G25G02
 127955472.22046  99705563.91246  24349121.354    24349120.683    24349124.185
 113118998.09248  88144681.29948  21525823.450    21525822.758    21525823.551
 117230959.96448  91348804.90247  22308304.498    22308303.715    22308301.331
 119677960.00647  93255541.78847  22773949.276    22773948.791    22773948.941
 119019906.71748  92742787.43446  22648730.878    22648729.501    22648725.483
 131187891.95346 102224287.66742  24964215.500    24964214.276    24964213.122
 127298842.22446  99193864.14443  24224154.189    24224152.205    24224151.974
 123073186.92547  95901164.57844  23420042.852    23420041.336    23420039.926
 108951406.20248  84897213.88348  20732756.357    20732755.997    20732752.960
 122022487.69547  95082462.04847  23220104.451    23220103.890    23220104.407
 128748278.33346 100323336.24843  24499984.257    24499982.550    24499980.253
 15 12 21  0 49  0.0000000  0 11G06G26G29G03G23G14G32G16G31G25G02
 127996338.29146  99737406.97246  24356898.249    24356899.119    24356898.895
 113045205.81848  88087180.85548  21511781.226    21511780.590    21511781.548
 117188597.19448  91315794.84247  22300242.953    22300242.259    22300240.426
 119746145.76047  93308673.53347  22786924.336    22786923.993    22786923.941
 118937172.36548  92678319.12646  22632987.064    22632986.160    22632981.643
 131302065.13946 102313253.68442  24985942.182    24985940.533    24985939.202
 127404063.89346  99275854.89243  24244178.308    24244176.317    24244174.085
 122957347.70747  95810900.46444  23397999.242    23397997.227    23397995.102
 108998464.22648  84933882.47348  20741711.423    20741710.973    20741707.795
 122123020.65047  95160799.09247  23239235.129    23239234.595    23239234.591
 128723811.51046 100304271.84843  24495329.726    24495328.119    24495324.295
 15 12 21  0 49 30.0000000  0 11G06G26G29G03G23G14G32G16G31G25G02
 128037750.55846  99769675.72545  24364779.266    24364780.011    24364782.173
 112971860.83848  88030029.09948  21497823.971    21497823.316    21497824.168
 117146819.67648  91283240.69447  22292293.316    22292292.824    22292290.345
 119814808.42547  93362176.92247  22799990.076    22799990.020    22799989.746
 118854783.81448  92614120.25946  22617309.140    22617308.191    22617303.851
 131416309.76645 102402275.26042  25007682.081    25007680.730    25007678.806
 127509446.59047  99357971.21343  24264232.829    24264231.674    24264228.546
 122841726.20147  95720805.85844  23375997.563    23375996.581    23375995.096
 109045946.81348  84970881.80748  20750746.796    20750746.524    20750743.645
 122223829.48447  95239351.09847  23258419.032    23258417.991    23258419.008
 128699856.21346 100285605.80443  24490770.392    24490769.300    24490766.029
 15 12 21  0 50  0.0000000  0 11G06G26G29G03G23G14G32G16G31G25G02
 128079707.20646  99802368.83746  24372763.747    24372763.199    24372764.285
 112898963.83748  87973226.23548  21483952.056    21483951.528    21483952.320
 117105629.56848  91251144.32147  22284455.514    22284454.742    22284452.480
 119883945.20847  93416049.79447  22813146.358    22813146.084    22813146.848
 118772742.84148  92550192.22946  22601696.982    22601696.256    22601691.879
 131530623.46546 102491350.68442  25029435.678    25029434.076    25029432.189
 127614987.49547  99440211.01144  24284316.555    24284314.676    24284312.380
 122726324.66947  95630882.75444  23354036.232    23354034.635    23354033.112
 109093852.44449  85008210.70148  20759863.425    20759862.878    20759859.950
 122324910.92647  95318115.41146  23277654.510    23277654.386    23277654.999
 128676413.30946 100267338.87044  24486309.505    24486307.751    24486305.479
 15 12 21  0 50 30.0000000  0 12G06G26G29G03G23G14G32G09G16G31G25G02
 128122208.52446  99835486.44745  24380852.181    24380852.705    24380852.589
 112826519.22548  87916775.91448  21470166.175    21470165.538    21470166.593
 117065030.71248  91219508.92347  22276729.190    22276728.814    22276726.684
 119953555.74247  93470291.81447  22826392.549    22826392.404    22826392.159
 118691053.95448  92486538.55846  22586151.990    22586150.953    22586146.774
 131645006.49146 102580480.10742  25051201.970    25051201.450    25051199.407
 127720684.34746  99522571.74544  24304428.062    24304426.597    24304426.860
 132583319.02446 103311672.38745  25229765.758    25229764.772    25229767.128
 122611147.65247  95541134.46344  23332119.714    23332118.017    23332115.572
 109142182.55848  85045870.50248  20769060.328    20769059.907    20769056.729
 122426265.02047  95397092.22746  23296941.230    23296939.621    23296941.548
 128653484.88846 100249472.28344  24481945.331    24481944.052    24481938.752
 15 12 21  0 51  0.0000000  0 12G06G26G29G03G23G14G32G09G16G31G25G02
 128165252.43346  99869026.96745  24389043.128    24389042.395    24389045.397
 112754528.06148  87860678.82748  21456467.005    21456466.370    21456467.009
 117025023.91648  91188334.79047  22269116.053    22269115.697    22269113.747
 120023636.98347  93524900.55447  22839728.906    22839728.787    22839728.699
 118609719.19548  92423160.85246  22570674.322    22570673.658    22570669.827
 131759456.77246 102669661.98542  25072982.154    25072979.879    25072979.512
 127826535.87846  99605053.20444  24324571.082    24324569.930    24324570.905
 132471001.95546 103224152.69745  25208392.768    25208391.494    25208392.946
 122496197.56947  95451563.03144  23310244.546    23310244.079    23310242.652
 109190935.51948  85083859.95848  20778337.698    20778337.334    20778334.040
 122527888.79147  95476279.21946  23316279.612    23316278.201    23316280.893
 128631071.39647 100232006.09243  24477683.091    24477681.264    24477670.997
 15 12 21  0 51 30.0000000  0 12G06G26G29G03G23G14G32G09G16G31G25G02
 128208833.63446  99902985.74445  24397337.220    24397337.136    24397337.966
 112682989.48248  87804934.32348  21442853.922    21442853.117    21442853.896
 116985607.93148  91157620.88847  22261615.504    22261615.413    22261613.488
 120094184.03347  93579872.32047  22853153.578    22853153.330    22853154.080
 118528738.30048  92360058.85546  22555264.152    22555263.520    22555259.458
 131873969.52146 102758892.57942  25094773.210    25094771.332    25094770.338
 127932537.09546  99687651.84944  24344744.204    24344742.809    24344740.632
 132358782.86646 103136709.29745  25187038.084    25187037.131    25187038.319
 122381474.01147  95362168.21844  23288413.431    23288412.653    23288410.568
 109240106.86748  85122175.27748  20787694.678    20787694.047    20787691.054
 122629777.12047  95555672.41846  23335668.799    23335667.387    23335668.974
 128609173.62046 100214942.22843  24473516.529    24473515.457    24473511.211
 15 12 21  0 52  0.0000000  0 12G06G26G29G03G23G14G32G09G16G31G25G02
 128252954.32846  99937365.67246  24405731.741    24405731.360    24405736.529
 112611907.23148  87749545.54248  21429327.377    21429326.714    21429327.463
 116946786.51548  91127370.46247  22254228.606    22254227.566    22254225.754
 120165196.00447  93635206.42847  22866667.028    22866666.550    22866666.391
 118448114.98548  92297235.48846  22539922.058    22539921.217    22539917.178
 131988544.91145 102848171.90942  25116576.149    25116573.968    25116573.977
 128038685.30446  99770364.78843  24364943.146    24364941.717    24364940.617
 132246665.34646 103049344.97445  25165702.949    25165702.671    25165703.438
 122266980.32647  95272952.27544  23266625.855    23266625.292    23266623.770
 109289697.40848  85160817.26948  20797131.480    20797130.946    20797127.750
 122731927.86647  95635269.55946  23355109.384    23355108.191    23355107.990
 128587793.66446 100198282.54943  24469443.223    24469441.907    24469444.210
 15 12 21  0 52 30.0000000  0 11G06G26G29G03G23G32G09G16G31G25G02
 128297611.78146  99972163.74546  24414230.156    24414230.082    24414232.169
 112541284.10848  87694514.65348  21415888.266    21415887.425    21415888.230
 116908561.84148  91097584.97947  22246954.831    22246953.877    22246951.884
 120236671.13947  93690901.31847  22880268.185    22880267.861    22880267.762
 118367852.87848  92234693.62846  22524648.835    22524648.004    22524643.915
 128144978.18746  99853189.83543  24385168.952    24385168.251    24385168.094
 132134653.08146 102962062.66045  25144387.369    25144386.271    25144387.867
 122152720.43547  95183918.42444  23244883.659    23244882.481    23244880.449
 109339706.19948  85199784.64048  20806648.127    20806647.522    20806644.523
 122834341.78047  95715072.29046  23374598.472    23374597.244    23374597.582
 128566932.63046 100182027.28543  24465477.225    24465476.147    24465473.707
 15 12 21  0 53  0.0000000  0 11G06G26G29G03G23G32G09G16G31G25G02
 128342801.21946 100007375.86046  24422829.598    24422829.869    24422832.524
 112471118.41048  87639840.02148  21402536.178    21402535.507    21402536.222
 116870932.79848  91068263.60847  22239794.392    22239793.344    22239791.543
 120308604.55347  93746953.41747  22893956.710    22893956.415    22893956.113
 118287951.40548  92172432.81646  22509444.142    22509443.314    22509439.263
 128251413.42346  99936126.76243  24405422.055    24405419.711    24405422.907
 132022745.01246 102874861.46445  25123092.218    25123090.571    25123091.766
 122038694.43547  95095066.86644  23223185.804    23223184.928    23223181.612
 109390129.81248  85239075.17748  20816243.707    20816243.293    20816240.538
 122937012.06147  95795074.59346  23394135.865    23394135.002    23394135.648
 128546589.32846 100166175.62643  24461606.369    24461605.873    24461600.740
 15 12 21  0 53 30.0000000  0 11G06G26G29G03G23G32G09G16G31G25G02
 128388523.65646 100043003.56046  24431530.232    24431531.429    24431533.772
 112401413.88348  87585524.78448  21389271.619    21389271.064    21389271.919
 116833902.86648  91039409.24047  22232746.996    22232746.560    22232745.063
 120380994.98447  93803361.61847  22907731.811    22907731.616    22907731.468
 118208414.39448  92110455.96646  22494308.625    22494307.900    22494303.575
 128357987.06246 100019171.14443  24425702.139    24425701.115    24425702.888
 131910945.37246 102787744.70345  25101817.579    25101817.138    25101816.879
 121924906.22847  95006400.81544  23201532.095    23201531.709    23201528.600
 109440970.02248  85278690.89248  20825918.421    20825917.939    20825915.310
 123039938.03247  95875276.09946  23413721.768    23413720.362    23413723.429
 128526765.69746 100150728.95243  24457833.539    24457832.317    24457826.828
 15 12 21  0 54  0.0000000  0 11G06G26G29G03G23G32G09G16G31G25G02
 128434776.47146 100079044.00846  24440332.886    24440332.534    24440335.505
 112332173.07748  87531570.88848  21376095.495    21376094.871    21376095.912
 116797473.99948  91011023.26347  22225814.597    22225814.434    22225812.343
 120453840.94647  93860124.76647  22921593.834    22921593.440    22921593.790
 118129245.12648  92048765.65646  22479243.590    22479242.204    22479238.473
 128464698.17746 100102322.61843  24446009.939    24446008.836    24446007.879
 131799257.50146 102700715.24245  25080563.766    25080563.492    25080563.692
 121811358.68347  94917922.17744  23179924.604    23179923.701    23179921.761
 109492225.93749  85318630.91348  20835671.807    20835671.247    20835668.510
 123143119.45647  95955677.21546  23433357.653    23433357.186    23433357.504
 128507461.39046 100135686.31443  24454160.188    24454158.248    24454155.329
 15 12 21  0 54 30.0000000  0 11G06G26G29G03G23G32G09G16G31G25G02
 128481559.58146 100115498.36646  24449236.560    24449236.770    24449239.222
 112263396.29148  87477978.55348  21363007.960    21363007.232    21363008.092
 116761645.89448  90983105.18647  22218996.770    22218996.338    22218994.267
 120527138.46947  93917239.77547  22935541.525    22935541.405    22935541.541
 118050444.52448  91987362.56846  22464248.222    22464247.358    22464242.825
 128571541.56246 100185576.54643  24466342.300    24466341.611    24466338.722
 131687682.04246 102613773.41146  25059331.720    25059330.916    25059332.365
 121698053.23247  94829632.19444  23158363.189    23158361.789    23158359.424
 109543894.36348  85358892.25148  20845503.882    20845503.406    20845500.516
 123246552.50947  96036274.91346  23453039.859    23453038.906    23453040.226
 128488679.11546 100121051.11843  24450585.320    24450583.251    24450580.815
 15 12 21  0 55  0.0000000  0 11G06G26G29G03G23G32G09G16G31G25G02
 128528869.55046 100152363.44046  24458237.753    24458238.453    24458239.893
 112195085.58848  87424749.39148  21350008.961    21350008.282    21350009.153
 116726420.43748  90955656.62947  22212294.215    22212293.346    22212291.310
 120600885.36247  93974704.90647  22949575.741    22949575.753    22949574.961
 117972015.30348  91926248.89546  22449323.397    22449322.609    22449318.623
 128678517.15746 100268933.94043  24486699.975    24486697.539    24486696.162
 131576221.60646 102526921.20146  25038121.228    25038120.288    25038122.019
 121584992.08347  94741532.34944  23136848.585    23136847.641    23136845.951
 109595975.10148  85399475.02548  20855414.327    20855413.840    20855410.735
 123350234.59847  96117067.13646  23472768.086    23472766.573    23472768.732
 128470418.88546 100106822.92443  24447109.350    24447107.558    24447106.064
 15 12 21  0 55 30.0000000  0 11G06G26G29G03G23G32G09G16G31G25G02
 128576705.56946 100189638.56845  24467341.140    24467340.276    24467343.837
 112127242.93048  87371884.93348  21337098.799    21337098.101    21337099.132
 116691800.32647  90928679.81247  22205705.654    22205705.445    22205703.540
 120675079.40447  94032518.49447  22963694.140    22963693.772    22963693.885
 117893960.24348  91865426.73946  22434469.901    22434469.265    22434464.754
 128785622.33846 100352392.82443  24507081.564    24507080.023    24507077.009
 131464878.83546 102440160.80346  25016933.013    25016932.695    25016934.317
 121472178.98847  94653626.10344  23115381.181    23115379.635    23115377.762
 109648466.46848  85440377.56848  20865403.063    20865402.410    20865399.289
 123454161.85947  96198049.85146  23492544.637    23492543.264    23492545.614
 128452678.67446 100092998.64243  24443735.129    24443732.982    24443730.183
 15 12 21  0 56  0.0000000  0 11G06G26G29G03G23G32G09G16G31G25G02
 128625065.11046 100227321.92445  24476542.601    24476542.378    24476545.328
 112059869.70248  87319386.29448  21324278.117    21324277.545    21324278.461
 116657786.75048  90902175.98847  22199233.181    22199232.684    22199230.659
 120749717.61147  94090678.16247  22977896.748    22977896.753    22977896.975
 117816281.12248  91804897.57746  22419687.929    22419687.361    22419683.261
 128892852.61246 100435948.83543  24527486.464    24527485.447    24527483.115
 131353655.46346 102353493.44646  24995768.392    24995768.264    24995769.040
 121359615.32547  94565914.06944  23093961.074    23093960.110    23093957.635
 109701366.93748  85481598.81948  20875469.377    20875469.046    20875465.814
 123558331.89647  96279221.46246  23512367.029    23512365.679    23512367.540
 128435462.34147 100079582.90543  24440459.905    24440458.655    24440454.525
 15 12 21  0 56 30.0000000  0 11G06G26G29G03G23G32G09G16G31G25G02
 128673946.85346 100265412.14045  24485844.178    24485845.110    24485848.796
 111992968.14148  87267255.19848  21311547.241    21311546.501    21311547.424
 116624380.78247  90876145.53647  22192876.508    22192875.583    22192873.528
 120824797.92347  94149182.27347  22992184.545    22992184.395    22992184.265
 117738980.97048  91744663.70646  22404978.436    22404977.528    22404973.530
 129000205.44046 100519599.65343  24547915.068    24547914.475    24547917.957
 131242554.45946 102266921.44046  24974626.407    24974624.895    24974627.274
 121247304.66347  94478399.37044  23072589.300    23072587.690    23072585.540
 109754676.08148  85523138.49248  20885613.717    20885613.281    20885610.167
 123662742.13047  96360579.58846  23532236.210    23532235.786    23532237.816
 128418769.48746 100066574.41443  24437283.617    24437282.354    24437279.950
 15 12 21  0 57  0.0000000  0 11G06G26G29G03G23G32G09G16G31G25G02
 128723348.75546 100303907.85445  24495244.007    24495244.358    24495248.148
 111926539.57348  87215492.70648  21298906.166    21298905.639    21298906.454
 116591583.72248  90850589.61847  22186635.109    22186634.442    22186632.170
 120900317.63347  94208028.82747  23006555.363    23006555.010    23006555.608
 117662061.88748  91684726.75646  22390341.300    22390340.232    22390336.132
 129107676.71946                  24568367.104
 131131577.50746 102180446.00746  24953508.188    24953507.997    24953508.305
 121135247.40247  94391081.51744  23051265.643    23051264.508    23051262.286
 109808392.58748  85564995.59148  20895835.542    20895835.055    20895831.944
 123767391.77446  96442124.57446  23552150.531    23552148.976    23552150.734
 128402603.55246 100053977.55043  24434207.074    24434205.687    24434204.780
 15 12 21  0 57 30.0000000  0 11G06G26G29G03G23G32G09G16G31G25G02
 128773266.60446                  24504742.023
 111860582.07248  87164097.28648  21286354.835    21286354.341    21286355.116
 116559392.76748  90825505.65047  22180509.086    22180508.656    22180506.726
 120976270.52947  94267212.95047  23021008.672    23021008.734    23021008.522
 117585522.55948  91625085.71546  22375776.548    22375775.783    22375770.848
 129215271.46746                  24588839.793
 131020723.35346 102094066.07745  24932412.981    24932412.399    24932413.270
 121023444.84547  94303962.57744  23029990.385    23029989.616    23029986.151
 109862511.53048  85607166.26148  20906133.987    20906133.548    20906130.341
 123872273.82447  96523850.57146  23572109.166    23572108.246    23572109.273
 128386957.25846 100041784.47843  24431230.592    24431229.837    24431227.544
 15 12 21  0 58  0.0000000  0 11G06G26G29G03G23G32G09G16G31G25G02
 128823700.43146                  24514339.262
 111795102.03348  87113073.87848  21273894.491    21273893.858    21273894.742
 116527815.09547  90800899.75847  22174499.732    22174499.828    22174497.546
 121052658.88447  94326736.40247  23035544.990    23035544.665    23035543.860
 117509370.06348  91565746.09546  22361285.044    22361283.951    22361280.191
 129322977.03746                  24609335.350
 130909999.76547 102007788.02046  24911343.305    24911342.410    24911344.780
 120911903.16247  94217047.11044  23008764.674    23008763.454    23008761.882
 109917036.50048  85649653.28748  20916509.707    20916509.359    20916506.161
 123977390.94846  96605759.70046  23592113.019    23592111.653    23592113.565
 128371843.89447 100030009.35143  24428354.364    24428352.974    24428351.293
 15 12 21  0 58 30.0000000  0 11G06G26G29G03G23G32G09G16G31G25G02
 128874647.51046                  24524034.041
 111730100.59548  87062423.38148  21261525.223    21261524.585    21261525.356
 116496851.24748  90776772.11747  22168608.438    22168607.476    22168605.374
 121129479.56647  94386596.73747  23050163.518    23050163.580    23050162.664
 117433606.42648  91506709.50546  22346867.527    22346866.431    22346862.346
 129430794.36746                  24629852.445
 130799408.09346 101921612.79246  24890297.673    24890296.886    24890299.086
 120800623.74947  94130335.67644  22987589.206    22987587.963    22987585.717
 109971965.99548  85692455.51148  20926962.550    20926961.937    20926958.796
 124082739.62247  96687848.87446  23612160.900    23612159.804    23612161.723
 128357257.72147 100018644.82444  24425577.367    24425576.454    24425571.700
 15 12 21  0 59  0.0000000  0 11G06G26G29G03G23G32G09G16G31G25G02
 128926105.72446                  24533825.739
 111665577.19248  87012145.36248  21249246.814    21249246.175    21249246.969
 116466500.19648  90753121.99347  22162832.659    22162831.874    22162829.778
 121206727.60647  94446790.03047  23064863.314    23064863.113    23064862.013
 117358231.89348  91447976.19146  22332524.011    22332523.282    22332519.284
 129538722.45446 100939224.67542  24650390.129    24650389.639    24650387.759
 130688948.35546 101835540.26246  24869278.411    24869277.443    24869279.369
 120689608.11147  94043830.18345  22966463.374    22966462.738    22966459.732
 110027296.25648  85735570.01748  20937491.445    20937491.027    20937487.890
 124188317.88647  96770117.94646  23632251.482    23632250.782    23632251.616
 128343196.14546 100007688.27143  24422900.750    24422899.707    24422895.271
 15 12 21  0 59 30.0000000  0 11G06G26G29G03G23G32G09G16G31G25G02
 128978074.12746 100502412.32745  24543714.977    24543715.808    24543716.164
 111601535.63048  86962242.85548  21237060.059    21237059.520    21237060.343
 116436765.32748  90729951.98247  22157173.633    22157173.341    22157171.469
 121284402.65547  94507316.14547  23079644.146    23079643.474    23079643.650
 117283250.57548  91389549.26146  22318255.556    22318254.980    22318250.475
 129646758.02546 101023408.04542  24670948.568    24670946.049    24670945.017
 130578625.30246 101749574.35346  24848284.019    24848283.539    24848284.378
 120578859.70547  93957532.61045  22945388.392    22945387.393    22945385.182
 110083028.51548  85778997.78648  20948096.974    20948096.514    20948093.289
 124294123.42447  96852564.16746  23652384.596    23652383.241    23652386.783
 128329658.98946  99997138.22543  24420326.128    24420324.193    24420319.949
 15 12 21  1  0  0.0000000  0 11G06G26G29G03G23G32G09G16G31G25G02
 129030551.13846 100543303.54245  24553701.305    24553701.029    24553702.131
 111537977.00648  86912716.65948  21224965.355    21224964.632    21224965.571
 116407647.92048  90707263.28447  22151633.088    22151632.546    22151630.206
 121362501.76047  94568172.73847  23094505.974    23094505.862    23094504.930
 117208664.52148  91331430.33046  22304062.332    22304061.409    22304057.535
 129754893.50046                  24691527.890
 130468440.35746 101663715.92446  24827315.907    24827315.849    24827317.505
 120468381.00547  93871445.29645  22924364.636    22924364.237    22924361.926
 110139161.33348  85822737.65548  20958778.619    20958778.171    20958774.889
 124400154.28547  96935186.37246  23672561.694    23672561.296    23672560.198
 128316653.27846  99987003.26543  24417851.560    24417851.021    24417846.349
 15 12 21  1  0 30.0000000  0 11G06G26G29G03G23G32G09G16G31G25G02
 129083531.10046 100584586.46445  24563782.762    24563782.999    24563784.201
 111474899.85048  86863565.65048  21212961.908    21212961.365    21212962.387
 116379145.13348  90685053.18047  22146209.282    22146208.637    22146206.257
 121441018.90647  94629354.99847  23109446.713    23109446.787    23109446.336
 117134472.93948  91273618.75646  22289944.404    22289943.279    22289938.855
 129863130.32046                  24712126.700
 130358393.40846 101577965.06346  24806375.375    24806373.999    24806377.221
 120358171.63647  93785567.95145  22903393.134    22903391.739    22903389.951
 110195690.06348  85866785.98948  20969535.586    20969535.294    20969532.013
 124506403.61446  97017978.54846  23692778.977    23692778.099    23692782.086
 128304176.01846  99977281.04943  24415476.557    24415475.520    24415473.750
 15 12 21  1  1  0.0000000  0 11G06G26G29G03G23G32G09G16G31G25G02
 129137010.76046 100626258.65645  24573959.915    24573959.927    24573960.825
 111412304.20048  86814789.82448  21201050.565    21201049.822    21201050.670
 116351257.44848  90663322.54147  22140902.427    22140901.870    22140899.820
 121519949.67547  94690859.40047  23124467.027    23124467.465    23124466.600
 117060676.81648  91216115.30046  22275901.270    22275900.453    22275896.164
 129971473.22746                  24732741.344
 130248485.20046 101492322.33046  24785460.404    24785459.526    24785461.567
 120248232.67047  93699901.58545  22882471.861    22882470.343    22882468.363
 110252611.99248  85911140.69248  20980367.647    20980367.120    20980363.970
 124612868.18846  97100938.50846  23713038.135    23713037.094    23713038.898
 128292226.31946  99967970.86743  24413202.056    24413200.267    24413197.838
 15 12 21  1  1 30.0000000  0 11G06G26G29G03G23G32G09G16G31G25G02
 129190996.45346 100668325.06745  24584234.165    24584233.506    24584235.424
 111350199.85348  86766396.82248  21189232.352    21189231.821    21189232.765
 116323994.12348  90642078.53147  22135714.083    22135713.676    22135711.637
 121599300.08947  94752690.78147  23139566.684    23139566.734    23139566.308
 116987286.72748  91158928.31746  22261935.493    22261934.453    22261930.375
 130079909.33146                  24753376.787
 130138726.70246 101406796.41646  24764574.085    24764572.881    24764575.353
 120138573.09947  93614452.37145  22861604.047    22861602.985    22861601.751
 110309934.18748  85955807.28248  20991275.687    20991275.388    20991272.024
 124719553.30946  97184070.11146  23733341.250    23733341.030    23733340.166
 128280809.86046  99959075.74643  24411028.361    24411027.613    24411024.315
 15 12 21  1  2  0.0000000  0 11G06G26G29G03G23G32G09G16G31G25G02
 129245481.93346 100710780.82545  24594602.017    24594601.210    24594602.899
 111288584.13248  86718384.56648  21177507.267    21177506.663    21177507.607
 116297352.59148  90621319.21847  22130643.819    22130643.610    22130641.637
 121679063.34147  94814843.93647  23154746.054    23154745.686    23154745.974
 116914300.83848  91102056.35146  22248046.466    22248045.673    22248041.804
 130188438.25946 101445502.55543  24774030.190    24774029.036    24774028.734
 130029115.35746 101321385.11245  24743715.601    24743714.953    24743716.139
 120029192.66847  93529220.89445  22840789.812    22840789.281    22840787.626
 110367651.10348  86000781.47048  21002259.018    21002258.438    21002255.327
 124826452.31746  97267368.08846  23753680.910    23753680.565    23753682.463
 128269923.71846  99950593.52943  24408954.549    24408953.177    24408952.319
 15 12 21  1  2 30.0000000  0 11G06G26G29G03G23G32G09G16G31G25G02
 129300464.86246 100753624.51945  24605064.568    24605064.264    24605066.768
 111227457.66148  86670753.53248  21165875.279    21165874.721    21165875.626
 116271332.35048  90601043.93947  22125692.544    22125691.875    22125689.691
 121759235.57847  94877315.71147  23170001.613    23170001.392    23170001.154
 116841719.95548  91045499.91946  22234235.022    22234234.217    22234229.770
 130297057.10746 101530139.65943  24794700.342    24794698.677    24794699.081
 129919653.04246 101236089.99446  24722885.329    24722885.149    24722886.659
 119920092.74947  93444208.03945  22820029.279    22820027.687    22820026.424
 110425760.79948  86046061.76448  21013316.950    21013316.327    21013313.090
 124933562.58147  97350830.84146  23774064.267    23774063.075    23774064.955
 128259567.03446  99942523.26143  24406985.119    24406983.822    24406982.300
 15 12 21  1  3  0.0000000  0 11G06G26G29G03G23G32G09G16G31G25G02
 129355941.29546 100796852.46045  24615622.176    24615622.047    24615623.893
 111166821.05548  86623504.21948  21154336.821    21154335.991    21154336.924
 116245933.74148  90581252.97147  22120858.767    22120858.491    22120856.345
 121839813.47547  94940103.67347  23185335.395    23185335.194    23185334.826
 116769546.01148  90989260.60946  22220500.464    22220499.601    22220495.269
 130405762.89046 101614844.36443  24815387.166    24815385.657    24815384.451
 129810341.29746 101150912.37146  24702083.872    24702082.957    24702084.574
 119811274.71647  93359414.81845  22799321.636    22799320.320    22799318.614
 110484261.17348  86091646.46548  21024449.266    21024448.580    21024445.400
 125040880.74147  97434455.57346  23794486.395    23794486.143    23794486.769
 128249741.48546  99934867.59843  24405115.212    24405114.714    24405111.669
 15 12 21  1  3 30.0000000  0 11G06G26G29G03G23G32G09G16G31G25G02
 129411910.40346 100840464.71545  24626272.377    24626272.418    24626274.716
 111106675.83548  86576637.87248  21142891.138    21142890.634    21142891.602
 116221157.85447  90561947.13347  22116144.496    22116143.822    22116141.833
 121920794.04647  95003205.39047  23200745.843    23200745.711    23200745.334
 116697781.30648  90933340.25746  22206844.129    22206843.403    22206838.920
 130514555.14346 101699617.38143  24836088.979    24836087.612    24836090.345
 129701181.71846 101065853.10846  24681311.112    24681310.924    24681311.956
 119702741.21647  93274843.56945  22778667.980    22778666.503    22778664.874
 110543151.25548  86137534.82748  21035655.528    21035655.119    21035651.849
 125148403.99246  97518240.04746  23814946.739    23814945.384    23814947.060
 128240444.60946  99927623.15743  24403345.899    24403343.938    24403339.554
 15 12 21  1  4  0.0000000  0 11G06G26G29G03G23G32G09G16G31G25G02
 129468372.32646 100884461.16945  24637016.665    24637016.543    24637018.356
 111047026.31548  86530157.78148  21131540.521    21131539.709    21131540.478
 116197008.51748  90543129.53247  22111549.298    22111548.308    22111546.185
 122002177.83447  95066621.43847  23216232.193    23216232.163    23216231.891
 116626430.44748  90877742.30646  22193266.433    22193265.479    22193260.900
 130623430.48846                  24856807.235
 129592179.69546 100980916.41746  24660569.445    24660567.834    24660570.046
 119594496.74447  93190497.27645  22758070.304    22758068.973    22758066.653
 110602431.87748  86183727.53148  21046936.125    21046935.704    21046932.561
 125256132.12547  97602183.69646  23835448.357    23835447.768    23835446.418
 128231678.25846                  24401680.206
 15 12 21  1  4 30.0000000  0 11G06G26G29G03G23G32G09G16G31G25G02
 129525321.81746 100928837.75446  24647854.430    24647853.350    24647855.711
 110987870.32048  86484062.14148  21120283.422    21120282.689    21120283.639
 116173483.32248  90524798.24147  22107072.785    22107071.515    22107069.378
 122083958.50247  95130346.77047  23231794.190    23231793.568    23231794.314
 116555492.26348  90822465.73546  22179767.308    22179766.397    22179761.790
 130732386.74546                  24877541.034
 129483334.78646 100896102.21545  24639856.086    24639855.898    24639856.764
 119486540.78547  93106375.88745  22737526.303    22737525.219    22737522.770
 110662098.43748  86230220.99148  21058290.266    21058289.918    21058286.752
 125364059.48446  97686282.04046  23855984.689    23855983.646    23855987.761
 128223446.45146                  24400113.304
 15 12 21  1  5  0.0000000  0 11G06G26G29G03G23G32G09G16G31G25G02
 129582756.08246 100973591.58046  24658783.519    24658782.865    24658785.004
 110929210.55448  86438353.30648  21109120.708    21109119.970    21109121.071
 116150583.83148  90506954.49547  22102714.713    22102713.889    22102711.875
 122166133.88047  95194379.64747  23247432.124    23247432.738    23247431.654
 116484970.73248  90767513.96146  22166347.589    22166346.372    22166342.079
 130841421.07746                  24898288.973
 129374649.75246 100811412.53345  24619173.960    24619174.043    24619175.478
 119378876.34847  93022481.54545  22717038.606    22717037.308    22717034.840
 110722150.82148  86277015.08047  21069717.993    21069717.525    21069714.272
 125472186.55647  97770536.68846  23876562.942    23876562.529    23876564.868
 128215747.99546                  24398647.460
 15 12 21  1  5 30.0000000  0 11G06G26G29G03G23G32G09G16G31G25G02
 129640674.13546 101018722.10246  24669804.118    24669804.466    24669806.446
 110871049.07548  86393032.78948  21098052.956    21098052.256    21098053.032
 116128312.73848  90489600.47447  22098476.284    22098476.138    22098473.616
 122248702.18047  95258718.65547  23263144.338    23263144.416    23263143.840
 116414868.30748  90712888.71446  22153007.216    22153006.379    22153002.269
 130950529.22146                  24919050.087
 129266127.91846 100726849.98046  24598523.492    24598522.722    24598524.798
 119271506.75347  92938816.94545  22696606.969    22696605.956    22696603.593
 110782588.48648  86324109.40448  21081218.807    21081218.434    21081215.134
 125580511.05646  97854945.31846  23897174.998    23897173.826    23897177.480
 128208582.25146                  24397284.824
 15 12 21  1  6  0.0000000  0 11G06G26G29G03G23G32G09G16G31G25G02
 129699076.82846 101064231.21246  24680917.857    24680917.137    24680922.235
 110813387.25248  86348101.56248  21087080.295    21087079.578    21087080.422
 116106670.60248  90472736.52847  22094358.261    22094357.398    22094354.892
 122331660.58147  95323361.65047  23278930.197    23278930.198    23278929.951
 116345187.63448  90658592.15046  22139747.561    22139746.649    22139742.226
 131059709.92146                  24939825.711
 129157771.93146 100642416.73246  24577903.660    24577902.813    24577905.063
 119164434.72447  92855384.23645  22676231.727    22676230.963    22676228.058
 110843410.33648  86371503.09548  21092792.874    21092792.491    21092789.156
 125689029.92147  97939505.30146  23917827.186    23917826.146    23917825.887
 128201950.14146  99897629.83042  24396021.243    24396019.617    24396016.264
 15 12 21  1  6 30.0000000  0 11G06G26G29G03G23G32G09G16G31G25G02
 129757960.76146 101110115.13446  24692123.307    24692121.994    24692124.763
 110756228.46548  86303562.21048  21076203.401    21076202.764    21076203.538
 116085659.99348  90456364.65847  22090359.826    22090359.352    22090356.764
 122415008.42747  95388307.98446  23294791.545    23294791.934    23294789.889
 116275932.90548  90604627.53946  22126568.596    22126567.813    22126563.324
 131168957.07246                  24960617.057
 129049586.34446 100558116.26246  24557317.376    24557316.743    24557318.142
 119057664.12347  92772186.25945  22655914.283    22655912.824    22655911.106
 110904617.10049  86419196.74347  21104439.995    21104439.612    21104436.335
 125797743.96746  98024217.70846  23938512.829    23938512.033    23938511.434
 128195851.72546  99892877.13442  24394861.529    24394859.529    24394856.379
 15 12 21  1  7  0.0000000  0 11G06G26G29G03G23G32G09G16G31G25G02
 129817318.18846 101156367.75246  24703419.021    24703418.784    24703419.882
 110699568.36648  86259411.48948  21065421.381    21065420.727    21065421.525
 116065276.38848  90440481.38547  22086480.966    22086480.510    22086478.079
 122498736.91947  95453550.91546  23310723.918    23310723.619    23310723.522
 116207100.07948  90550991.55546  22113470.492    22113469.441    22113465.115
 131278272.65346                  24981420.202
 128941567.33647 100473945.52746  24536761.856    24536761.261    24536761.383
 118951192.00147  92689220.98545  22635652.704    22635651.401    22635649.459
 110966201.51248  86467184.66747  21116159.209    21116158.741    21116155.327
 125906643.98047  98109074.98246  23959237.828    23959237.525    23959234.046
 128190282.94246  99888536.81742  24393802.723    24393801.258    24393798.232
 15 12 21  1  7 30.0000000  0 11G06G26G29G03G23G32G09G16G31G25G02
 129877152.12546 101202991.56346  24714803.901    24714803.256    24714807.045
 110643412.86748  86215653.97248  21054735.238    21054734.661    21054735.518
 116045525.06948  90425090.78547  22082722.310    22082721.829    22082719.405
 122582848.13347  95519092.11446  23326729.707    23326729.916    23326730.456
 116138696.24548  90497689.82846  22100453.467    22100452.661    22100448.565
 131387649.35546                  25002233.704
 128833722.38447 100389910.55046  24516240.198    24516239.559    24516239.208
 118845024.94747  92606493.50545  22615449.565    22615448.688    22615446.049
 111028166.41748  86515469.03647  21127950.603    21127950.290    21127946.922
 126015732.71346  98194079.51646  23979993.922    23979992.907    23979995.028
 128185250.90246  99884615.37043  24392845.882    24392844.471    24392842.729
 15 12 21  1  8  0.0000000  0 11G06G26G29G03G23G32G09G16G31G25G02
 129937459.65746 101249984.66146  24726280.148    24726279.867    24726282.671
 110587762.45248  86172290.07048  21044145.257    21044144.507    21044145.314
 116026406.07648  90410192.94247  22079083.995    22079083.799    22079081.296
 122667337.99847  95584928.28247  23342808.005    23342807.624    23342807.485
 116070722.93948  90444723.58546  22087518.779    22087517.823    22087513.225
 131497089.44046                  25023060.125
 128726052.55447 100306012.05346  24495750.875    24495749.771    24495751.374
 118739164.67647  92524005.20645  22595305.179    22595304.273    22595301.747
 111090510.15148  86564048.56947  21139814.316    21139813.933    21139810.438
 126125005.55646  98279226.90546  24000790.087    24000788.642    24000789.669
 128180753.09346  99881110.19543  24391990.219    24391989.155    24391986.050
 15 12 21  1  8 30.0000000  0 11G06G26G29G03G23G32G09G16G31G25G02
 129998236.50046 101297343.24946  24737846.254    24737846.029    24737848.376
 110532617.26048  86129319.81648  21033651.670    21033650.849    21033651.614
 116007918.80848  90395787.23447  22075565.782    22075565.684    22075563.038
 122752202.99347  95651056.87547  23358957.335    23358957.185    23358956.205
 116003181.28248  90392093.67446  22074665.974    22074665.033    22074660.597
 131606589.00346 102550571.19542  25043899.057    25043896.629    25043895.713
 128618559.29846 100222251.22646  24475295.299    24475295.361    24475295.148
 118633611.97347  92441756.48545  22575218.999    22575217.606    22575215.776
 111153230.09048  86612921.25247  21151749.622    21151748.973    21151745.642
 126234460.74746  98364516.81646  24021617.891    24021617.600    24021619.656
 128176790.18746  99878022.33043  24391236.210    24391235.039    24391232.213
 15 12 21  1  9  0.0000000  0 11G06G26G29G03G23G32G09G16G31G25G02
 130059480.88546 101345065.97846  24749500.870    24749500.440    24749501.685
 110477978.78348  86086744.38848  21023254.148    21023253.543    21023254.132
 115990063.83448  90381874.18447  22072168.678    22072167.957    22072165.539
 122837440.23247  95717475.47646  23375177.359    23375177.253    23375176.183
 115936073.33448  90339801.75146  22061895.604    22061894.701    22061890.402
 131716145.25546                  25064745.701
 128511244.41346 100138629.07846  24454873.350    24454872.185    24454875.560
 118528369.44447  92359749.26345  22555192.052    22555190.920    22555188.411
 111216325.38548  86662086.43747  21163756.030    21163755.481    21163752.342
 126344095.71246  98449946.83046  24042479.068    24042477.714    24042482.070
 128173362.03746  99875351.30043  24390584.386    24390582.864    24390579.348
 15 12 21  1  9 30.0000000  0 11G06G26G29G03G23G32G09G16G31G25G02
 130121191.74746 101393152.17146  24761244.166    24761243.462    24761245.798
 110423849.42148  86044565.67148  21012953.688    21012953.150    21012953.826
 115972843.48248  90368455.51147  22068891.937    22068891.204    22068888.824
 122923047.99847  95784182.81946  23391468.027    23391467.745    23391467.806
 115869402.42148  90287850.38146  22049208.557    22049207.525    22049203.406
 131825754.84546 102721350.16542  25085601.535    25085600.217    25085604.916
 128404112.28046 100055149.44446  24434487.314    24434486.616    24434489.830
 118423440.75447  92277986.65845  22535224.965    22535223.619    22535221.276
 111279795.19348  86711543.44347  21175834.033    21175833.469    21175830.285
 126453908.29246  98535515.11946  24063378.223    24063376.613    24063377.729
 128170471.19547  99873100.16243  24390033.676    24390033.250    24390026.949
 15 12 21  1 10  0.0000000  0 11G06G26G29G03G23G32G09G16G31G25G02
 130183366.71946 101441599.83446  24773075.146    24773075.176    24773076.729
 110370230.51948  86002784.61248  21002750.524    21002749.701    21002750.508
 115956259.17448  90355532.72747  22065736.031    22065735.578    22065732.760
 123009023.72047  95851176.85647  23407828.522    23407827.408    23407827.754
 115803171.12248  90236241.54846  22036605.244    22036604.293    22036599.834
 131935414.81745 102806799.60542  25106471.113    25106454.658    25106430.104
 128297165.85446  99971814.72046  24414136.536    24414134.992    24414137.951
 118318829.00247  92196471.26145  22515317.965    22515316.845    22515314.216
 111343638.66048  86761291.58547  21187982.855    21187982.453    21187979.077
 126563897.09946  98621220.63346  24084306.348    24084304.859    24084308.277
 128168115.21047  99871265.19143  24389584.425    24389583.774    24389578.028
 15 12 21  1 10 30.0000000  0 11G06G26G29G03G23G32G09G16G31G25G02
 130246002.53446 101490406.72146  24784995.130    24784995.788    24784996.580
 110317121.76848  85961400.98648  20992644.355    20992643.580    20992644.487
 115940309.45748  90343104.38447  22062700.950    22062700.111    22062697.570
 123095362.80747  95918454.02046  23424258.454    23424258.285    23424258.122
 115737379.98248  90184975.70746  22024085.833    22024084.788    22024080.345
 132045124.62946                  25127347.796
 128190405.44846  99888624.93045  24393819.955    24393819.270    24393821.529
 118214534.50548  92115203.07545  22495471.242    22495469.659    22495467.813
 111407852.92448  86811328.63947  21200202.510    21200202.082    21200198.750
 126674058.40646  98707060.71246  24105270.926    24105270.199    24105270.841
 128166292.43446  99869845.17943  24389236.683    24389235.016    24389229.335
 15 12 21  1 11  0.0000000  0 11G06G26G29G03G23G32G09G16G31G25G02
 130309096.68046 101539570.72746  24797001.659    24797001.404    24797004.359
 110264525.36048  85920416.81348  20982635.404    20982634.812    20982635.572
 115924995.54548  90331171.42447  22059787.172    22059786.192    22059783.577
 123182062.97247  95986012.55646  23440756.588    23440756.724    23440756.894
 115672031.19248  90134054.50246  22011650.132    22011649.174    22011644.808
 132154881.24246                  25148234.117
 128083833.72447  99805582.12245  24373540.046    24373539.181    24373541.218
 118110559.27347  92034183.58045  22475684.890    22475683.652    22475681.425
 111472437.01948  86861653.90447  21212492.370    21212492.090    21212488.653
 126784390.50047  98793034.24646  24126266.027    24126264.860    24126264.702
 128165004.55346  99868842.07343  24388991.832    24388990.048    24388982.020
 15 12 21  1 11 30.0000000  0 11G06G26G29G03G23G32G09G16G31G25G02
 130372649.03346 101589091.70446  24809095.416    24809095.193    24809096.881
 110212444.40248  85879834.37148  20972724.547    20972723.808    20972724.733
 115910320.09448  90319735.98847  22056994.319    22056993.453    22056990.921
 123269123.35047  96053851.81846  23457324.164    23457323.693    23457322.298
 115607129.41248  90083481.58346  21999299.928    21999298.846    21999294.677
 132264680.55545                  25169126.706
 127977455.27647  99722689.82845  24353296.979    24353296.192    24353296.974
 118006907.94248  91953416.32445  22455960.594    22455959.725    22455957.371
 111537391.61148  86912267.86347  21224852.931    21224852.512    21224849.134
 126894891.69146  98879139.02746  24147292.300    24147291.582    24147293.126
 128164252.71246  99868256.26943  24388848.423    24388846.577    24388840.989
 15 12 21  1 12  0.0000000  0 11G06G26G29G03G23G32G09G16G31G25G02
 130436655.46845 101638966.55046  24821275.237    24821273.801    24821277.534
 110160878.21348  85839653.24548  20962911.561    20962910.973    20962911.824
 115896281.26248  90308796.58547  22054322.878    22054322.163    22054319.551
 123356538.89647  96121967.83146  23473958.362    23473957.718    23473957.701
 115542674.72148  90033257.10746  21987034.505    21987033.757    21987029.198
 132374520.97246                  25190026.148
 127871270.75447  99639948.77946  24333090.799    24333089.831    24333091.845
 117903580.95447  91872901.77245  22436298.666    22436297.757    22436294.586
 111602713.36348  86963167.88947  21237283.227    21237282.862    21237279.691
 127005559.15346  98965373.69546  24168351.898    24168351.530    24168352.474
 128164036.64146  99868088.08643  24388806.567    24388806.341    24388800.403
 15 12 21  1 12 30.0000000  0 11G06G26G29G03G23G32G09G16G31G25G02
 130501113.57546 101689193.42746  24833541.974    24833542.431    24833544.726
 110109827.20848  85799873.35548  20953196.853    20953196.255    20953197.020
 115882880.51148  90298354.48747  22051772.299    22051771.945    22051769.727
 123444306.88547  96190358.47046  23490660.764    23490660.496    23490659.210
 115478669.17648  89983382.55946  21974855.074    21974854.198    21974849.843
 132484399.15946 103234560.81142  25210937.209    25210936.586    25210935.006
 127765282.33147  99557360.59646  24312921.577    24312921.125    24312923.636
 117800580.68148  91792641.79145  22416698.171    22416696.685    22416694.708
 111668400.67948  87014352.73447  21249783.210    21249782.927    21249779.507
 127116389.50147  99051735.13746  24189442.933    24189441.749    24189442.146
 128164355.40446  99868336.64043  24388868.246    24388866.927    24388860.924
 15 12 21  1 13  0.0000000  0 11G06G26G29G03G23G32G09G16G31G25G02
 130566021.22846 101739770.74746  24845893.497    24845893.460    24845894.195
 110059293.75648  85760496.80848  20943580.632    20943579.898    20943580.642
 115870118.50548  90288410.09447  22049344.217    22049343.285    22049340.905
 123532424.88247  96259021.83246  23507428.553    23507428.838    23507427.339
 115415115.60448  89933860.20546  21962761.074    21962760.192    21962755.835
 132594311.82746 103320207.22542  25231853.127    25231851.433    25231850.765
 127659492.93947  99474927.40746  24292790.876    24292789.956    24292791.569
 117697910.45747  91712639.24945  22397160.311    22397159.624    22397156.627
 111734453.07748  87065822.04547  21262352.812    21262352.225    21262349.057
 127227381.09646  99138222.02446  24210563.719    24210563.789    24210564.131
 128165209.93246  99869002.64643  24389030.158    24389029.605    24389023.869
 15 12 21  1 13 30.0000000  0 11G06G26G29G03G23G32G09G16G31G25G02
 130631376.74946 101790697.03846  24858330.084    24858329.356    24858332.844
 110009278.87248  85721524.21348  20934063.006    20934062.397    20934063.068
 115857996.06348  90278964.08547  22047036.399    22047036.365    22047034.005
 123620890.35947  96327955.95346  23524262.782    23524261.889    23524263.313
 115352016.50148  89884692.02546  21950753.902    21950752.899    21950748.579
 132704256.41546 103405878.14442  25252774.421    25252772.065    25252773.684
 127553905.38646  99392651.48346  24272698.314    24272696.727    24272698.541
 117595572.50748  91632895.60045  22377686.163    22377684.724    22377682.107
 111800869.13648  87117574.76247  21274991.176    21274990.682    21274987.481
 127338532.01546  99224832.92046  24231714.149    24231713.946    24231713.901
 128166600.06146  99870085.73043  24389292.775    24389292.084    24389287.708
 15 12 21  1 14  0.0000000  0 11G06G26G29G03G23G32G09G16G31G25G02
 130697176.83746 101841969.71746  24870851.385    24870850.565    24870853.359
 109959783.53548  85682956.42848  20924644.262    20924643.785    20924644.363
 115846512.93548  90270016.19747  22044851.473    22044851.203    22044849.054
 123709700.09247  96397158.40246  23541163.408    23541162.985    23541163.227
 115289373.59548  89835879.34446  21938833.205    21938832.637    21938828.219
 132814230.04446 103491570.86042  25273700.501    25273699.368    25273699.987
 127448521.58046  99310534.27646  24252644.143    24252642.894    24252644.543
 117493568.54448  91553412.17245  22358275.410    22358274.170    22358271.622
 111867647.41748  87169609.70347  21287698.793    21287698.294    21287695.332
 127449840.19146  99311566.48246  24252894.922    24252893.525    24252897.465
 128168526.18346  99871586.62743  24389660.334    24389659.163    24389654.224
 15 12 21  1 14 30.0000000  0 11G06G26G29G03G23G32G09G16G31G25G02
 130763417.86746 101893586.05746  24883456.809    24883456.690    24883459.400
 109910807.23548  85644792.99148  20915324.605    20915323.966    20915324.653
 115835667.90048  90261565.46147  22042787.694    22042787.567    22042785.122
 123798849.51247  96466625.47347  23558127.076    23558127.032    23558127.894
 115227187.19048  89787422.30946  21926999.772    21926998.866    21926994.725
 132924233.12646 103577287.88942  25294635.024    25294634.069    25294635.913
 127343342.95546  99228577.12146  24232629.081    24232628.379    24232629.882
 117391899.39848  91474189.66345  22338927.956    22338926.896    22338923.911
 111934785.02648  87221924.70147  21300474.751    21300474.363    21300471.166
 127561300.77446  99398418.49646  24274106.761    24274105.323    24274107.524
 128170985.95646  99873503.28843  24390129.426    24390127.700    24390122.731
 15 12 21  1 15  0.0000000  0 11G06G26G29G03G23G32G09G16G31G25G02
 130830098.51646 101945544.85646  24896146.764    24896145.898    24896147.857
 109862353.14348  85607036.49848  20906104.291    20906103.493    20906104.201
 115825464.26647  90253614.52747  22040846.288    22040845.860    22040843.706
 123888337.40247  96536356.28946  23575157.285    23575156.186    23575155.350
 115165461.17448  89739324.03446  21915253.663    21915252.585    21915248.587
 133034260.23045 103663023.35542  25315572.685    25315570.914    25315568.048
 127238373.43846  99146782.96246  24212653.754    24212653.497    24212654.819
 117290568.74848  91395230.76445  22319645.734    22319644.201    22319641.688
 112002282.18748  87274519.83547  21313318.814    21313318.641    21313315.520
 127672914.18146  99485389.79446  24295346.918    24295346.495    24295345.788
 128173981.69946  99875837.44343  24390698.700    24390699.192    24390693.568
 15 12 21  1 15 30.0000000  0 11G06G26G29G03G23G32G09G16G31G25G02
 130897218.39946 101997846.39146  24908918.162    24908917.850    24908922.425
 109814422.58548  85569688.01848  20896983.197    20896982.598    20896983.304
 115815901.60948  90246163.04547  22039026.722    22039026.328    22039023.993
 123978161.19647  96606348.84546  23592249.406    23592248.485    23592248.432
 115104198.12848  89691586.49446  21903595.630    21903594.664    21903590.783
 133144307.76746                  25336514.284
 127133615.51246  99065153.70346  24192718.932    24192718.642    24192719.366
 117189579.57148  91316537.96445  22300427.496    22300426.707    22300424.147
 112070137.92548  87327394.40447  21326231.456    21326230.895    21326227.799
 127784678.25346  99572478.54446  24316615.205    24316614.380    24316614.198
 128177513.31246  99878589.15143  24391369.823    24391369.439    24391364.801
 15 12 21  1 16  0.0000000  0 11G06G26G29G03G23G32G09G16G31G25G02
 130964771.98646 102050486.29846  24921772.406    24921771.882    24921776.806
 109767014.66848  85532746.87648  20887961.438    20887961.004    20887961.678
 115806979.32848  90239210.53147  22037329.065    22037328.745    22037325.916
 124068315.73947  96676599.11646  23609405.723    23609405.495    23609405.005
 115043397.91048  89644209.66246  21892025.794    21892024.886    21892020.740
 133254377.38546                  25357460.559
 127029069.68646  98983689.65546  24172824.466    24172823.480    24172824.195
 117088931.65547  91238111.08745  22281275.001    22281273.723    22281270.954
 112138348.66648  87380545.72647  21339211.433    21339211.126    21339207.860
 127896588.94146  99659681.80646  24337909.874    24337909.079    24337909.152
 128181579.19546  99881757.35443  24392143.877    24392141.960    24392138.315
 15 12 21  1 16 30.0000000  0 11G06G26G29G03G23G32G09G16G31G25G02
 131032757.23146 102103462.01746  24934709.763    24934708.780    24934711.740
 109720132.27848  85496215.19848  20879040.227    20879039.606    20879040.173
 115798699.22048  90232758.42547  22035753.127    22035752.831    22035750.409
 124158800.24747  96747106.46646  23626623.614    23626623.331    23626623.637
 114983064.78948  89597196.81646  21880544.872    21880543.888    21880539.840
 133364465.73745                  25378407.642
 126924740.42446  98902394.24546  24152971.358    24152970.808    24152969.998
 116988629.31448  91159953.39045  22262188.312    22262186.739    22262184.335
 112206915.06748  87433974.14947  21352259.192    21352258.788    21352255.652
 128008645.10646  99746998.17446  24359232.380    24359231.267    24359232.651
 128186180.46846  99885342.72743  24393018.325    24393017.582    24393015.312
 15 12 21  1 17  0.0000000  0 11G06G26G29G03G23G32G09G16G31G25G02
 131101171.74046 102156772.08745  24947728.949    24947728.649    24947730.554
 109673775.66048  85460093.17548  20870218.859    20870218.213    20870218.777
 115791059.89348  90226805.58347  22034299.784    22034299.371    22034297.010
 124249611.12746  96817868.21846  23643903.415    23643902.988    23643903.655
 114923199.84848  89550548.84346  21869153.049    21869152.120    21869147.729
 133474570.06546                  25399358.505
 126820629.35446  98821268.88046  24133159.215    24133158.325    24133158.963
 116888674.34747  91082066.37145  22243167.247    22243166.232    22243163.436
 112275835.01848  87487678.15647  21365374.052    21365373.597    21365370.496
 128120843.32346  99834424.78646  24380583.718    24380582.937    24380584.109
 128191316.30446  99889344.32543  24393996.559    24393996.415    24393993.732
 15 12 21  1 17 30.0000000  0 11G06G26G29G03G23G32G09G16G31G25G02
 131170013.12346 102210414.75045  24960827.815    24960828.272    24960830.369
 109627945.59548  85424381.39748  20861497.668    20861497.052    20861497.782
 115784063.10448  90221353.50647  22032968.499    22032968.010    22032965.534
 124340744.95746  96888881.58646  23661246.811    23661246.576    23661246.173
 114863804.80848  89504267.00646  21857850.499    21857849.616    21857845.599
 133584685.27746 104091932.82441  25420314.630    25420311.650    25420311.406
 126716738.60047  98740315.16746  24113389.592    24113388.499    24113388.719
 116789069.12148  91004451.98145  22224213.204    22224211.892    22224208.613
 112345106.52348  87541656.08247  21378555.949    21378555.616    21378552.318
 128233183.03146  99921962.20846  24401961.693    24401960.822    24401963.042
 128196986.70846  99893762.67943  24395076.027    24395074.763    24395073.903
 15 12 21  1 18  0.0000000  0 11G06G26G29G03G23G32G09G16G31G25G02
 131239280.97146                  24974008.705
 109582644.17048  85389081.55548  20852877.163    20852876.557    20852877.317
 115777709.52048  90216402.70647  22031759.395    22031758.751    22031756.448
 124432199.79347  96960145.10546  23678649.955    23678649.804    23678649.806
 114804883.34848  89458354.29046  21846637.953    21846637.118    21846632.997
 133694808.30446 104177742.80742  25441269.374    25441267.424    25441267.338
 126613071.76847  98659535.88146  24093662.192    24093661.301    24093661.596
 116689816.16947  90927112.08745  22205325.630    22205324.772    22205322.033
 112414729.15948  87595907.54747  21391804.908    21391804.362    21391801.131
 128345661.01546 100009607.03145  24423366.833    24423365.225    24423367.717
 128203191.58446  99898597.14843  24396256.395    24396255.306    24396255.224
 15 12 21  1 18 30.0000000  0 11G06G26G29G03G23G32G09G16G31G25G02
 131308970.07646 102318693.77545  24987270.585    24987269.087    24987273.380
 109537872.13048  85354194.19648  20844357.381    20844356.799    20844357.373
 115771999.18948  90211953.21447  22030672.068    22030671.976    22030669.898
 124523972.55047  97031656.37446  23696113.318    23696112.780    23696114.329
 114746436.72148  89412811.54746  21835515.677    21835514.592    21835510.666
 133804936.85946 104263556.80342  25462225.469    25462263.965    25462217.918
 126509630.77947  98578932.45846  24073978.170    24073976.396    24073977.478
 116590917.71447  90850048.34445  22186505.998    22186505.049    22186501.549
 112484701.42348  87650431.42447  21405120.057    21405119.623    21405116.382
 128458275.75746 100097358.57345  24444796.191    24444795.281    24444797.116
 128209932.26846  99903849.49143  24397539.145    24397537.532    24397537.679
 15 12 21  1 19  0.0000000  0 11G06G26G29G03G23G32G09G16G31G25G02
 131379079.59346 102373324.67245  25000610.840    25000612.158    25000614.605
 109493630.95048  85319720.42748  20835938.648    20835937.988    20835938.761
 115766932.23348  90208005.03047  22029707.821    22029707.802    22029705.439
 124616060.75047  97103413.37846  23713637.679    23713637.191    23713637.518
 114688467.65448  89367640.87646  21824484.751    21824483.868    21824479.473
 133915065.33746                  25483186.353
 126406419.07147  98498507.72046  24054337.041    24054337.034    24054337.718
 116492376.39948  90773262.86645  22167754.132    22167753.098    22167750.449
 112555022.77248  87705227.43847  21418501.505    21418501.302    21418497.805
 128571026.31746 100185216.27546  24466252.535    24466251.831    24466251.901
 128217207.90946  99909518.78543  24398924.299    24398922.270    24398921.004
 15 12 21  1 19 30.0000000  0 11G06G26G29G03G23G32G09G16G31G25G02
 131449601.90345 102428277.15645  25014031.130    25014029.454    25014033.256
 109449917.00748  85285657.56348  20827620.233    20827619.563    20827620.216
 115762504.73148  90204555.06947  22028865.596    22028865.133    22028863.119
 124708456.59046  97175410.13646  23731219.956    23731219.806    23731219.700
 114630973.14948  89322840.01346  21813543.834    21813542.976    21813538.510
 134025204.03746                  25504143.095
 126303434.39146  98418260.10446  24034739.924    24034738.500    24034741.199
 116394189.53048  90696753.54745  22149070.076    22149068.576    22149065.779
 112625686.58448  87760290.21247  21431948.390    21431947.886    21431944.612
 128683904.41546 100273173.26846  24487732.478    24487732.094    24487731.994
 128225012.28546  99915599.42543  24400409.001    24400407.180    24400405.225
 15 12 21  1 20  0.0000000  0 10G06G26G29G03G23G09G16G31G25G02
 131520541.00145 102483554.46045  25027529.979    25027528.965    25027531.810
 109406737.20848  85252010.91748  20819403.344    20819402.726    20819403.448
 115758723.15948  90201608.63547  22028145.615    22028145.335    22028143.191
 124801162.99847  97247648.83946  23748861.791    23748862.019    23748860.219
 114573961.30048  89278415.23046  21802694.772    21802693.790    21802689.483
 126200685.05746  98338195.90246  24015187.245    24015186.863    24015187.439
 116296365.72247  90620527.22645  22130454.832    22130453.317    22130450.777
 112696697.37848  87815623.29947  21445461.264    21445460.859    21445457.541
 128796913.77246 100361232.32446  24509237.498    24509235.816    24509237.872
 128233352.64046  99922097.55943  24401998.064    24401995.266    24401992.554
 15 12 21  1 20 30.0000000  0 10G06G26G29G03G23G09G16G31G25G02
 131591892.64945 102539153.25945  25041108.977    25041106.436    25041109.602
 109364091.50648  85218780.53348  20811288.127    20811287.478    20811288.236
 115755585.54548  90199163.67047  22027548.864    22027548.420    22027546.202
 124894176.22447  97320126.69446  23766561.396    23766561.753    23766560.197
 114517433.33648  89234367.57146  21791937.738    21791937.007    21791932.537
 126098172.17246  98258315.78546  23995679.314    23995679.352    23995680.295
 116198905.81448  90544584.42745  22111908.384    22111907.370    22111904.846
 112768052.58548  87871224.72747  21459039.779    21459039.339    21459035.986
 128910050.32046 100449389.92946  24530767.415    24530765.515    24530767.645
 128242228.74746  99929013.87842  24403688.530    24403686.866    24403682.861
 15 12 21  1 21  0.0000000  0 10G06G26G29G03G23G09G16G31G25G02
 131663651.83745 102595069.39645  25054763.891    25054765.873    25054764.140
 109321978.18949  85185964.92448  20803274.371    20803273.593    20803274.448
 115753090.49448  90197219.72547  22027074.075    22027073.077    22027071.356
 124987490.60647  97392839.16446  23784318.941    23784318.191    23784317.465
 114461388.51648  89190696.31746  21781273.057    21781272.100    21781267.505
 125995896.20346  98178620.32946  23976216.538    23976215.758    23976216.457
 116101809.47948  90468924.95945  22093432.043    22093430.600    22093428.484
 112839748.69748  87927091.79847  21472682.958    21472682.469    21472679.148
 129023312.02746 100537645.81046  24552320.113    24552318.724    24552321.481
 128251636.88146  99936344.92342  24405479.205    24405476.708    24405473.574
 15 12 21  1 21 30.0000000  0 10G06G26G29G03G23G09G16G31G25G02
 131735818.40945 102651303.05245  25068496.370    25068495.339    25068499.778
 109280399.79848  85153566.18448  20795362.169    20795361.446    20795362.294
 115751239.20747  90195777.43847  22026721.053    22026720.633    22026718.646
 125081104.67747  97465785.21446  23802132.942    23802132.249    23802131.999
 114405830.07848  89147404.03246  21770700.572    21770699.609    21770695.104
 125893860.84847  98099112.39246  23956800.271    23956799.739    23956800.780
 116005081.10748  90393552.31645  22075024.805    22075023.837    22075021.059
 112911785.93048  87983224.67747  21486391.407    21486390.909    21486387.555
 129136695.81146 100625996.36346  24573896.021    24573895.441    24573897.766
 128261577.08246  99944090.16743  24407370.923    24407369.189    24407366.249
 15 12 21  1 22  0.0000000  0 10G06G26G29G03G23G09G16G31G25G02
 131808388.73045 102707851.43145  25082305.479    25082304.705    25082306.104
 109239357.48248  85121585.18648  20787552.014    20787551.384    20787552.080
 115750031.80748  90194836.71247  22026491.742    22026491.022    22026488.495
 125175015.77546  97538962.68246  23820002.470    23820002.129    23820002.901
 114350760.69548  89104492.83646  21760220.940    21760220.094    21760215.543
 125792069.15247  98019794.36146  23937430.244    23937429.299    23937429.798
 115908722.48347  90318467.70245  22056688.417    22056687.112    22056684.522
 112984162.74048  88039622.15047  21500164.276    21500163.827    21500160.627
 129250201.23446 100714441.93846  24595495.852    24595496.242    24595496.932
 128272050.43446  99952251.00243  24409363.502    24409361.896    24409360.039
 15 12 21  1 22 30.0000000  0 10G06G26G29G03G23G09G16G31G25G02
 131881360.57245 102764712.59245  25096192.838    25096192.114    25096192.953
 109198851.33748  85090021.85248  20779843.971    20779843.325    20779844.211
 115749467.96848  90194397.33147  22026384.578    22026383.896    22026381.372
 125269220.47446  97612368.95046  23837929.705    23837928.827    23837928.676
 114296181.04548  89061962.99746  21749834.802    21749834.103    21749830.003
 125690522.70347  97940667.32346  23918106.568    23918104.541    23918106.661
 115812735.08248  90243672.31746  22038422.824    22038421.698    22038418.793
 113056877.28148  88096282.86547  21514001.196    21514000.727    21513997.339
 129363825.11046 100802979.95146  24617118.184    24617117.480    24617119.283
 128283055.54046  99960825.95043  24411458.352    24411456.854    24411454.075
 15 12 21  1 23  0.0000000  0 10G06G26G29G03G23G09G16G31G25G02
 131954730.25545 102821883.82145  25110155.223    25110153.069    25110155.547
 109158882.05748  85058876.82048  20772238.206    20772237.531    20772238.350
 115749547.69048  90194459.47847  22026399.600    22026399.033    22026396.318
 125363715.20147  97686001.22046  23855911.564    23855910.450    23855910.405
 114242093.46148  89019816.55946  21739542.895    21739541.921    21739537.625
 125589224.00147  97861733.43546  23898829.409    23898829.009    23898829.214
 115717120.99948  90169167.75846  22020227.927    22020227.107    22020224.503
 113129927.62048  88153205.17947  21527902.467    21527901.884    21527898.624
 129477564.38046 100891607.61746  24638762.296    24638761.093    24638763.050
 128294592.17546  99969815.34743  24413653.134    24413652.783    24413650.085
 15 12 21  1 23 30.0000000  0 10G06G26G29G03G23G09G16G31G25G02
 132028495.75445 102879363.45244  25124191.069    25124191.651    25124193.246
 109119451.19448  85028151.60048  20764734.689    20764734.081    20764734.883
 115750270.76848  90195022.95047  22026537.182    22026536.586    22026534.319
 125458497.24946  97759857.35846  23873947.531    23873946.983    23873947.882
 114188499.71848  88978054.82046  21729344.313    21729343.784    21729339.582
 125488175.48147  97782994.45946  23879601.265    23879599.874    23879599.740
 115621882.41248  90094955.82146  22002104.714    22002103.637    22002100.995
 113203312.33948  88210388.02847  21541867.016    21541866.635    21541863.219
 129591418.54246 100980325.31046  24660427.948    24660427.133    24660429.219
 128306659.87746  99979218.78543  24415948.848    24415947.945    24415945.167
 15 12 21  1 24  0.0000000  0 10G06G26G29G03G23G09G16G31G25G02
 132102655.74845 102937150.43244  25138302.642    25138302.425    25138303.847
 109080560.51848  84997847.26748  20757334.057    20757333.336    20757334.059
 115751638.85248  90196089.01047  22026796.985    22026796.831    22026794.317
 125553565.01847  97833936.12146  23892039.704    23892039.892    23892038.204
 114135403.90148  88936681.31946  21719240.908    21719239.771    21719235.897
 125387380.86247  97704453.18746  23860419.645    23860419.081    23860419.335
 115527023.37248  90021039.66646  21984053.614    21984052.255    21984050.159
 113277031.88648  88267831.79847  21555895.374    21555894.906    21555891.595
 129705386.57146 101069132.21546  24682114.944    24682114.137    24682115.956
 128319260.01946  99989037.04743  24418346.520    24418344.489    24418343.725
 15 12 21  1 24 30.0000000  0 10G06G26G29G03G23G09G16G31G25G02
 132177206.37245 102995241.83044  25152489.237    25152490.409    25152492.074
 109042209.16548  84967963.04748  20750035.989    20750035.258    20750036.171
 115753649.85648  90197655.92747  22027179.982    22027179.673    22027177.078
 125648914.09347  97908234.07346  23910183.817    23910183.576    23910182.729
 114082805.89148  88895695.75146  21709231.749    21709230.941    21709226.704
 125286841.14046  97626110.42246  23841287.365    23841287.347    23841288.032
 115432544.42548  89947419.74546  21966074.702    21966073.700    21966071.361
 113351083.48448  88325534.38147  21569986.682    21569986.423    21569983.015
 129819463.79945 101158024.10546  24703822.765    24703820.278    24703822.705
 128332390.49346  99999268.77143  24420846.666    24420844.516    24420843.123
 15 12 21  1 25  0.0000000  0 10G06G26G29G03G23G09G16G31G25G02
 132252144.93245 103053635.51944  25166750.361    25166751.465    25166751.896
 109004398.50449  84938500.19048  20742840.777    20742840.251    20742841.047
 115756304.84948  90199724.76247  22027685.543    22027684.584    22027682.356
 125744541.64046  97982748.97246  23928379.954    23928379.151    23928380.455
 114030708.21548  88855100.09146  21699318.122    21699317.302    21699313.135
 125186559.61147  97547968.91846  23822205.310    23822204.425    23822205.110
 115338447.79548  89874097.70846  21948169.018    21948167.705    21948165.347
 113425465.44548  88383494.34247  21584141.481    21584140.980    21584137.582
 129933648.40246 101246999.60546  24725548.957    24725548.446    24725551.904
 128346052.97046 100009916.15343  24423446.067    24423444.705    24423442.573
 15 12 21  1 25 30.0000000  0 10G06G26G29G03G23G09G16G31G25G02
 132327469.72445 103112330.12645  25181084.877    25181084.662    25181085.657
 108967130.28248  84909460.05448  20735748.847    20735748.154    20735749.150
 115759603.74048  90202295.26647  22028313.093    22028312.734    22028310.299
 125840445.67546  98057479.30647  23946631.865    23946632.208    23946630.443
 113979113.08548  88814895.94146  21689499.965    21689499.087    21689494.793
 125086539.90747  97470031.61246  23803171.407    23803170.790    23803170.663
 115244736.54148  89801075.98046  21930336.294    21930335.155    21930332.559
 113500177.39748  88441711.42147  21598358.852    21598358.276    21598354.941
 130047939.05846 101336057.67246  24747298.339    24747298.013    24747299.219
 128360246.53646 100020977.61043  24426144.983    24426143.989    24426142.331
 15 12 21  1 26  0.0000000  0 10G06G26G29G03G23G09G16G31G25G02
 132403177.93345 103171323.54045  25195490.632    25195489.844    25195492.476
 108930404.98448  84880842.93048  20728760.271    20728759.654    20728760.495
 115763547.16648  90205368.01647  22029063.388    22029063.074    22029060.601
 125936623.22746  98132422.90646  23964932.069    23964932.803    23964931.247
 113928022.78348  88775085.27246  21679777.975    21679776.891    21679772.829
 124986783.89847  97392299.75046  23784188.635    23784189.000    23784188.946
 115151412.68248  89728356.05746  21912577.523    21912576.238    21912573.460
 113575217.92048  88500184.57847  21612638.373    21612638.009    21612634.782
 130162333.06346 101425195.90745  24769067.318    24769066.602    24769067.794
 128374967.91046 100032449.49643  24428945.250    24428944.549    24428941.564
 15 12 21  1 26 30.0000000  0 10G06G26G29G03G23G09G16G31G25G02
 132479266.47245 103230613.26745  25209969.875    25209969.754    25209971.149
 108894223.03848  84852649.12248  20721875.177    20721874.519    20721875.397
 115768134.61848  90208942.66947  22029936.596    22029936.094    22029933.733
 126033070.73946  98207576.78346  23983284.705    23983283.935    23983284.170
 113877438.97049  88735669.34446  21670151.920    21670151.179    21670147.154
 124887294.27547  97314775.66146  23765256.050    23765256.019    23765255.574
 115058478.37248  89655939.76646  21894892.600    21894891.395    21894888.531
 113650585.05648  88558912.18347  21626980.317    21626979.889    21626976.543
 130276828.80346 101514413.46745  24790855.331    24790854.369    24790853.772
 128390218.59146 100044333.87043  24431847.173    24431844.205    24431841.761
 15 12 21  1 27  0.0000000  0  9G26G29G03G23G09G16G31G25G02
 108858583.76948  84824878.23848  20715093.280    20715092.729    20715093.456
 115773364.06948  90213017.70347  22030931.969    22030931.187    22030928.740
 126129783.48846  98282937.30246  24001689.748    24001688.278    24001688.679
 113827361.55248  88696648.03347  21660622.566    21660621.722    21660617.453
 124788071.21447  97237459.07946  23746375.203    23746375.397    23746374.134
 114965933.43147  89583826.76946  21877281.805    21877280.454    21877278.165
 113726275.91348  88617892.04847  21641383.693    21641383.285    21641380.030
 130391422.75046 101603707.68945  24812660.766    24812660.291    24812662.125
 128405995.03346 100056627.53042  24434848.864    24434847.836    24434842.676
 15 12 21  1 27 30.0000000  0  9G26G29G03G23G09G16G31G25G02
 108823488.92148  84797531.60948  20708414.894    20708414.324    20708415.084
 115779235.38948  90217592.66747  22032048.684    22032048.455    22032045.654
 126226759.68846  98358503.13446  24020143.741    24020143.824    24020143.143
 113777793.83048  88658023.90246  21651190.192    21651189.321    21651185.098
 124689118.63046  97160353.18946  23727543.947    23727543.305    23727544.063
 114873781.45148  89512020.01546  21859746.025    21859744.585    21859742.240
 113802290.19248  88677123.97747  21655848.925    21655848.480    21655845.084
 130506113.21446 101693077.10345  24834486.097    24834484.380    24834485.861
 128422298.43946 100069331.60142  24437951.854    24437950.843    24437946.447
 15 12 21  1 28  0.0000000  0  9G26G29G03G23G09G16G31G25G02
 108788939.22448  84770609.80548  20701840.344    20701839.822    20701840.496
 115785749.58648  90222668.68447  22033288.117    22033287.794    22033285.539
 126323996.29647  98434271.90546  24038647.530    24038647.795    24038646.705
 113728737.32448  88619798.14346  21641854.886    21641853.856    21641849.887
 124590439.04346  97083460.16846  23708766.436    23708765.643    23708766.987
 114782024.79048  89440521.35146  21842285.284    21842284.003    21842281.372
 113878626.10248  88736606.47847  21670375.400    21670374.598    21670371.260
 130620898.60346 101782520.53045  24856328.524    24856327.666    24856328.972
 128439128.06146 100082445.77143  24441152.838    24441151.982    24441149.940
 15 12 21  1 28 30.0000000  0  9G26G29G03G23G09G16G31G25G02
 108754935.01049  84744112.92648  20695369.530    20695369.085    20695369.855
 115792905.75247  90228244.83547  22034650.064    22034649.475    22034647.360
 126421490.43347  98510241.41646  24057199.651    24057199.258    24057198.756
 113680193.73848  88581972.08747  21632617.295    21632616.341    21632612.282
 124492035.26347  97006782.06946  23690041.117    23690040.806    23690040.437
 114690664.98548  89369331.83146  21824900.165    21824898.789    21824896.378
 113955282.26048  88796338.51447  21684962.140    21684961.870    21684958.508
 130735776.48846 101872036.05545  24878188.915    24878188.127    24878189.181
 128456484.28045 100095970.15043  24444453.737    24444451.477    24444452.593
 15 12 21  1 29  0.0000000  0  9G26G29G03G23G09G16G31G25G02
 108721477.20748  84718041.86448  20689002.816    20689002.263    20689003.016
 115800703.97848  90234321.36547  22036134.429    22036133.487    22036131.452
 126519238.78946  98586408.93446  24075799.947    24075799.562    24075801.571
 113632164.53548  88544546.76846  21623477.468    21623476.688    21623472.597
 124393909.20547  96930320.27346  23671367.146    23671366.359    23671366.493
 114599704.42648  89298453.47046  21807590.714    21807589.652    21807586.997
 114032257.31148  88856319.06647  21699610.285    21699609.678    21699606.292
 130850744.64946 101961621.81045  24900066.351    24900065.974    24900066.708
 128474365.66946 100109903.63443  24447860.038    24447857.539    24447853.318
 15 12 21  1 29 30.0000000  0  9G26G29G03G23G09G16G31G25G02
 108688566.94349  84692397.55448  20682740.288    20682739.642    20682740.298
 115809143.99248  90240898.02147  22037740.208    22037739.602    22037737.482
 126617238.66946  98662772.38646  24094449.384    24094448.675    24094449.437
 113584652.89448  88507524.78946  21614436.379    21614435.436    21614431.363
 124296064.05947  96854077.46546  23652748.846    23652747.816    23652748.508
 114509145.39048  89227887.97346  21790358.416    21790356.838    21790354.080
 114109549.83048  88916546.97947  21714318.547    21714317.980    21714314.714
 130965801.52646 102051276.76445  24921960.656    24921960.157    24921960.971
 128492771.93746 100124246.27042  24451363.408    24451361.939    24451355.800
 15 12 21  1 30  0.0000000  0  9G26G29G03G23G09G16G31G25G02
 108656204.16948  84667179.80248  20676581.789    20676581.166    20676581.903
 115818225.44448  90247974.45147  22039468.681    22039467.912    22039465.726
 126715486.78546  98739329.32346  24113145.110    24113145.565    24113146.331
 113537659.51149  88470906.67946  21605493.677    21605492.832    21605488.575
 124198502.05847  96778055.31946  23634183.107    23634181.493    23634182.345
 114418989.58348  89157636.57746  21773202.472    21773200.797    21773198.245
 114187158.24248  88977021.04647  21729086.856    21729086.490    21729083.063
 131080944.65946 102140998.97446  24943871.638    24943870.473    24943871.681
 128511702.18546 100138997.17242  24454965.203    24454963.703    24454958.100
 15 12 21  1 30 30.0000000  0  9G26G29G03G23G09G16G31G25G02
 108624391.24748  84642390.52148  20670528.067    20670527.383    20670528.131
 115827949.11748  90255551.23647  22041319.133    22041318.483    22041316.016
 126813981.44746  98816078.28546  24131888.071    24131887.352    24131889.831
 113491187.61148  88434694.89846  21596650.450    21596649.659    21596645.322
 124101227.18347  96702257.01046  23615671.390    23615671.023    23615671.365
 114329240.56948  89087702.25546  21756123.151    21756121.923    21756119.285
 114265082.64748  89037741.33547  21743915.558    21743915.107    21743911.464
 131196172.73446 102230787.09045  24965798.712    24965798.534    24965798.308
 128531157.29946 100154156.95343  24458663.922    24458664.426    24458662.071
 15 12 21  1 31  0.0000000  0  9G26G29G03G23G09G16G31G25G02
 108593127.14848  84618028.73248  20664578.831    20664578.095    20664578.912
 115838313.24848  90263627.15847  22043291.063    22043290.647    22043288.442
 126912718.67146  98893016.27946  24150677.160    24150676.883    24150679.153
 113445238.04549  88398890.13446  21587906.531    21587905.549    21587901.237
 124004240.56247  96626683.22546  23597216.299    23597215.628    23597214.167
 114239899.06548  89018085.39546  21739122.210    21739121.092    21739118.567
 114343320.05748  89098705.52247  21758803.457    21758803.023    21758799.689
 131311483.69346 102320639.93545  24987742.112    24987741.384    24987742.587
 128551135.67146 100169724.50042  24462468.514    24462465.966    24462461.541
 15 12 21  1 31 30.0000000  0  9G26G29G03G23G09G16G31G25G02
 108562411.25248  84594093.81848  20658734.074    20658733.394    20658734.020
 115849316.64348  90272201.12047  22045385.480    22045384.722    22045382.379
 127011694.59946  98970140.37446  24169512.425    24169512.299    24169512.344
 113399811.36348  88363492.76046  21579261.797    21579260.876    21579256.802
 123907543.71147  96551335.06946  23578815.277    23578814.975    23578812.633
 114150966.51448  88948787.29646  21722199.067    21722197.696    21722195.366
 114421868.16148  89159911.84047  21773750.715    21773750.263    21773746.895
 131426873.83346 102410554.45145  25009700.103    25009698.820    25009700.072
 128571635.10546 100185698.09542  24466368.984    24466367.033    24466363.291
 15 12 21  1 32  0.0000000  0  9G26G29G03G23G09G16G31G25G02
 108532245.76248  84570587.99848  20652994.053    20652993.379    20652994.180
 115860960.22148  90281274.00447  22047601.122    22047600.317    22047598.401
 127110906.50846  99047448.43446  24188391.798    24188391.636    24188390.275
 113354909.64249  88328504.38746  21570717.311    21570716.340    21570712.172
 123811139.68246  96476215.09646  23560468.675    23560468.444    23560470.227
 114062445.52148  88879809.96146  21705353.684    21705352.687    21705350.453
 114500726.37548  89221359.80847  21788756.888    21788756.512    21788753.089
 131542341.62346 102500529.41246  25031672.049    25031670.849    25031672.920
 128592655.82846 100202077.95143  24470368.658    24470367.901    24470364.546
 15 12 21  1 32 30.0000000  0  9G26G29G03G23G09G16G31G25G02
 108502629.99348  84547509.79048  20647359.011    20647358.283    20647359.415
 115873242.80748  90290844.86847  22049937.790    22049937.517    22049935.517
 127210352.14647  99124938.58846  24207315.851    24207315.936    24207312.543
 113310536.04248  88293927.64946  21562273.261    21562272.236    21562268.115
 123715032.03247  96401326.14146  23542181.406    23542180.486    23542180.715
 113974337.91448  88811154.46046  21688587.666    21688586.486    21688584.376
 114579893.78548  89283048.68447  21803821.868    21803821.360    21803818.271
 131657886.00946 102590564.04946  25053659.807    25053659.085    25053659.935
 128614197.84746 100218864.06543  24474467.594    24474465.737    24474464.868
 15 12 21  1 33  0.0000000  0  9G26G29G03G23G09G16G31G25G02
 108473566.27248  84524862.08248  20641828.923    20641828.278    20641829.549
 115886164.75147  90300913.90347  22052396.691    22052396.412    22052394.278
 127310028.08046  99202608.17046  24226283.469    24226283.374    24226278.691
 113266691.39148  88259763.06247  21553929.961    21553929.036    21553924.768
 123619222.80047  96326669.58046  23523949.770    23523948.624    23523948.522
 113886646.63648  88742823.63346  21671900.794    21671899.472    21671897.114
 114659368.33748  89344976.92547  21818945.562    21818945.009    21818941.705
 131773504.32346 102680656.29346  25075661.685    25075659.184    25075661.682
 128636259.87546 100236055.39143  24478667.098    24478665.248    24478661.198
 15 12 21  1 33 30.0000000  0  9G26G29G03G23G09G16G31G25G02
 108445055.66549  84502646.01948  20636403.501    20636402.802    20636404.138
 115899724.96948  90311480.34647  22054977.273    22054976.882    22054974.608
 127409931.10346  99280454.61246  24245293.814    24245293.632    24245294.614
 113223377.34348  88226011.83647  21545687.446    21545686.519    21545682.314
 123523714.49347  96252247.62247  23505774.649    23505773.667    23505774.389
 113799373.34048  88674818.55346  21655293.130    21655291.781    21655289.338
 114739148.27948  89407143.03147  21834127.181    21834126.631    21834123.200
 131889194.80846 102770804.72846  25097676.163    25097675.558    25097676.196
 128658840.65046 100253650.82243  24482964.537    24482963.404    24482957.494
 15 12 21  1 34  0.0000000  0  9G26G29G03G23G09G16G31G25G02
 108417098.20248  84480861.36448  20631083.032    20631082.512    20631083.748
 115913923.11648  90322543.69647  22057679.283    22057679.034    22057676.501
 127510058.23146  99358475.68545  24264347.147    24264347.271    24264349.176
 113180595.88048  88192675.70546  21537546.358    21537545.386    21537541.288
 123428509.68947  96178062.16447  23487657.764    23487657.037    23487657.269
 113712519.57748  88607140.37346  21638765.391    21638763.861    21638761.620
 114819232.82048  89469546.44647  21849366.878    21849366.293    21849362.961
 132004955.49146 102861008.10045  25119705.197    25119703.883    25119704.247
 128681939.49646 100271649.85943  24487359.084    24487358.843    24487353.231
 15 12 21  1 34 30.0000000  0  9G26G29G03G23G09G16G31G25G02
 108389694.00748  84459507.91248  20625867.823    20625867.244    20625868.471
 115928758.48948  90334103.53147  22060502.502    22060501.897    22060500.032
 127610406.80746  99436669.32345  24283442.966    24283442.644    24283444.538
 113138348.69648  88159755.84646  21529507.051    21529506.140    21529501.687
 123333611.07347  96104115.23746  23469598.932    23469598.651    23469598.876
 113626087.88648  88539790.99846  21622317.859    21622316.548    21622314.075
 114899620.06348  89532185.68647  21864664.370    21864663.787    21864660.392
 132120784.31946 102951264.42746  25141746.708    25141745.216    25141746.094
 128705556.06746 100290052.19043  24491851.739    24491850.395    24491849.203
 15 12 21  1 35  0.0000000  0  9G26G29G03G23G09G16G31G25G02
 108362842.88149  84438585.16648  20620758.018    20620757.409    20620758.547
 115944230.56848  90346159.62647  22063446.655    22063446.671    22063444.273
 127710973.74246  99515033.03546  24302581.452    24302580.050    24302579.637
 113096637.56548  88127253.76046  21521569.516    21521568.568    21521564.332
 123239021.26347  96030409.02846  23451598.528    23451597.387    23451597.179
 113540079.95448  88472771.80846  21605951.112    21605949.987    21605947.540
 114980308.73548  89595059.83747  21880018.859    21880018.398    21880015.425
 132236679.12846 103041572.10345  25163800.821    25163799.399    25163799.062
 128729690.33246 100308858.18443  24496443.970    24496442.585    24496441.208
 15 12 21  1 35 30.0000000  0  9G26G29G03G23G09G16G31G25G02
 108336544.89649  84418093.27048  20615753.631    20615753.097    20615754.134
 115960338.51247  90358711.08847  22066512.353    22066511.817    22066509.631
 127811755.57046  99593564.18846  24321759.975    24321758.757    24321756.947
 113055463.84248  88095170.55346  21513733.870    21513733.024    21513728.957
 123144742.25047  95956944.96047  23433658.232    23433657.831    23433657.205
 113454497.36948  88406084.08746  21589665.524    21589664.116    21589661.780
 115061297.06448  89658167.51147  21895430.362    21895429.986    21895426.916
 132352637.52846 103131929.26345  25185867.072    25185865.761    25185866.212
 128754339.55746 100328065.42943  24501136.567    24501135.693    24501131.304
 15 12 21  1 36  0.0000000  0  9G26G29G03G23G09G16G31G25G02
 108310800.39349  84398032.62848  20610854.716    20610854.057    20610855.350
 115977081.41248  90371757.39247  22069698.574    22069698.036    22069695.883
 127912748.82746  99672260.22046  24340976.832    24340975.512    24340977.567
 113014828.23148  88063506.59747  21506001.472    21506000.526    21505996.115
 123050776.05047  95883724.66347  23415777.039    23415776.160    23415776.332
 113369341.81248  88339729.15346  21573460.661    21573459.282    21573456.951
 115142583.15548  89721507.26147  21910898.608    21910898.256    21910894.913
 132468657.33246 103222334.33446  25207944.259    25207943.263    25207943.284
 128779502.76147 100347673.10143  24505926.433    24505924.911    24505920.271
 15 12 21  1 36 30.0000000  0  9G26G29G03G23G09G16G31G25G02
 108285610.82748  84378404.23548  20606061.461    20606060.786    20606062.039
 115994460.50948  90385299.97447  22073005.270    22073004.874    22073002.327
 128013951.64246  99751119.57546  24360232.665    24360231.377    24360235.008
 112974733.59048  88032263.93947  21498371.828    21498370.940    21498366.588
 122957126.48647  95810750.97246  23397955.937    23397955.777    23397955.417
 113284616.38448  88273709.31246  21557338.096    21557336.649    21557334.038
 115224166.84648  89785078.93847  21926423.594    21926422.912    21926420.147
 132584737.50946 103312786.34645  25230033.519    25230032.540    25230032.690
 128805180.55746 100367681.72943  24510812.133    24510810.172    24510808.245
 15 12 21  1 37  0.0000000  0  9G26G29G03G23G09G16G31G25G02
 108260977.96248  84359210.10248  20601373.605    20601373.133    20601374.085
 116012473.21847  90399335.82247  22076432.992    22076432.443    22076430.397
 128115361.29946  99830140.08846  24379530.253    24379529.438    24379533.427
 112935182.21148  88001444.71747  21490845.401    21490844.394    21490840.216
 122863796.25647  95738026.09946  23380195.653    23380195.590    23380194.955
 113200323.19248  88208026.25446  21541297.518    21541296.443    21541293.796
 115306046.67148  89848881.39247  21942004.971    21942004.328    21942001.082
 132700876.51746 103403284.20145  25252133.917    25252132.930    25252133.397
 128831371.91946 100388090.47743  24515793.824    24515791.818    24515791.276
 15 12 21  1 37 30.0000000  0  9G26G29G03G23G09G16G31G25G02
 108236899.49549  84340447.66248  20596791.611    20596791.131    20596792.072
 116031118.85347  90413864.84247  22079981.112    22079980.854    22079978.364
 128216973.46246  99909318.38246  24398868.506    24398869.076    24398869.419
 112896173.84248  87971048.54647  21483422.335    21483421.492    21483417.090
 122770786.75447  95665551.17647  23362496.949    23362495.964    23362496.252
 113116462.92248  88142680.48946  21525339.611    21525338.407    21525336.079
 115388219.57148  89912912.18247  21957641.855    21957641.214    21957638.057
 132817071.32246 103493825.65145  25274245.665    25274245.026    25274245.171
 128858075.18646 100408898.23143  24520876.328    24520874.939    24520869.005
 15 12 21  1 38  0.0000000  0  9G26G29G03G23G09G16G31G25G02
 108213376.19249  84322117.77248  20592315.310    20592314.769    20592315.939
 116050396.10548  90428885.70147  22083649.969    22083649.190    22083646.575
 128318784.92746  99988651.92546  24418243.688    24418243.811    24418243.123
 112857710.45248  87941077.15247  21476102.746    21476101.932    21476097.600
 122678100.52547  95593328.15646  23344859.132    23344858.794    23344857.745
 113033037.27048  88077673.29346  21509464.774    21509463.341    21509460.712
 115470684.45948  89977170.42647  21973334.330    21973334.080    21973330.871
 132933319.45946 103584408.50645  25296367.016    25296365.612    25296366.177
 128885288.88346 100430103.78842  24526055.411    24526054.285    24526049.367
 15 12 21  1 38 30.0000000  0  8G26G29G03G23G09G16G31G02
 108190409.28549  84304221.42448  20587945.093    20587944.439    20587945.466
 116070304.66647  90444398.14747  22087438.378    22087438.317    22087436.437
 128420793.69546 100068139.23146  24437654.322    24437652.944    24437655.161
 112819793.98448  87911531.79347  21468887.709    21468886.554    21468882.448
 122585740.59047  95521359.28646  23327283.596    23327282.807    23327283.053
 112950049.49448  88013007.37246  21493672.298    21493671.304    21493668.669
 115553440.61248  90041655.69947  21989082.429    21989081.936    21989078.935
 128913012.96746 100451706.89742  24531331.050    24531329.210    24531327.852
 15 12 21  1 39  0.0000000  0  8G26G29G03G23G09G16G31G02
 108167999.66348  84286759.44148  20583680.743    20583680.017    20583680.981
 116090845.58748  90460403.88747  22091347.899    22091347.269    22091345.106
 128522996.89046 100147778.01746  24457103.711    24457103.602    24457102.715
 112782426.86548  87882414.55247  21461776.952    21461776.123    21461771.622
 122493710.09447  95449647.18647  23309770.767    23309770.091    23309771.166
 112867501.41648  87948684.09446  21477964.116    21477962.961    21477960.334
 115636486.56148  90106366.89147  22004885.265    22004884.832    22004882.355
 128941246.60446 100473706.97943  24536704.470    24536702.645    24536700.182
 15 12 21  1 39 30.0000000  0  8G26G29G03G23G09G16G31G02
 108146146.45148  84269731.14548  20579521.899    20579521.309    20579522.379
 116112016.38748  90476900.67047  22095375.941    22095375.771    22095373.680
 128625390.16446 100227564.94745  24476587.962    24476587.187    24476587.339
 112745608.99248  87853725.27947  21454770.898    21454770.043    21454765.518
 122402010.23747  95378192.71547  23292321.223    23292320.232    23292320.269
 112785394.06548  87884704.30646  21462339.576    21462338.484    21462336.082
 115719819.70848  90171301.82547  22020743.269    22020742.931    22020739.745
 128969987.10846 100496101.88743  24542174.073    24542173.417    24542166.687
 15 12 21  1 40  0.0000000  0  8G26G29G03G23G09G16G31G02
 108124850.37349  84253136.74348  20575469.436    20575468.736    20575469.742
 116133816.93048  90493888.02647  22099524.756    22099524.344    22099522.489
 128727971.90846 100307498.82246  24496109.515    24496109.541    24496110.051
 112709342.66248  87825465.62847  21447869.626    21447868.945    21447864.484
 122310644.70147  95306998.70946  23274935.138    23274934.409    23274934.162
 112703729.62548  87821069.27746  21446799.975    21446798.545    21446796.288
 115803439.75748  90236460.30747  22036655.548    22036655.220    22036651.843
 128999235.56546 100518892.75443  24547738.907    24547737.573    24547731.490
 15 12 21  1 40 30.0000000  0  8G26G29G03G23G09G16G31G02
 108104112.32349  84236977.02248  20571523.272    20571522.727    20571523.738
 116156247.01348  90511365.93847  22103793.588    22103793.057    22103790.882
 128830739.28746 100387577.25846  24515664.259    24515664.325    24515663.878
 112673630.47148  87797637.91446  21441073.996    21441073.039    21441068.848
 122219616.54447  95236067.67047  23257612.847    23257611.791    23257612.646
 112622511.03548  87757781.79246  21431344.455    21431343.398    21431341.089
 115887345.73148  90301841.57047  22052622.243    22052621.954    22052618.888
 129028990.71246 100542078.26343  24553401.477    24553400.029    24553397.031
 15 12 21  1 41  0.0000000  0  8G26G29G03G23G09G16G31G02
 108083931.91849  84221251.88048  20567683.140    20567682.575    20567683.710
 116179305.14248  90529333.48147  22108181.191    22108180.186    22108178.646
 128933688.20046 100467797.10446  24535255.158    24535255.185    24535255.473
 112638472.38748  87770241.90247  21434383.695    21434382.725    21434378.509
 122128927.07047  95165400.50247  23240355.502    23240355.276    23240354.513
 112541740.22948  87694843.75646  21415973.984    21415972.926    21415970.742
 115971534.99948  90367443.61947  22068643.009    22068642.579    22068639.594
 129059250.78847 100565657.41443  24559160.838    24559158.988    24559154.586
 15 12 21  1 41 30.0000000  0  8G26G29G03G23G09G16G31G02
 108064310.29849  84205962.68048  20563948.945    20563948.369    20563949.599
 116202989.50047  90547788.92547  22112688.324    22112687.443    22112685.456
 129036815.42446 100548155.89346  24554880.911    24554880.845    24554881.637
 112603870.10748  87743279.02147  21427799.107    21427798.067    21427793.985
 122038578.90447  95094999.28746  23223162.710    23223162.129    23223161.512
 112461417.95048  87632255.32346  21400689.191    21400688.007    21400685.605
 116056006.02348  90433265.28047  22084717.447    22084717.136    22084713.832
 129090013.90147 100589628.30743  24565014.917    24565014.089    24565008.356
 15 12 21  1 42  0.0000000  0  8G26G29G03G23G09G16G31G02
 108045247.26649  84191108.88948  20560321.031    20560320.402    20560321.296
 116227299.74547  90566731.96347  22117314.450    22117313.429    22117311.217
 129140118.83046 100628652.09246  24574539.042    24574538.053    24574538.756
 112569825.20948  87716750.43247  21421320.449    21421319.596    21421315.432
 121948574.86347  95024866.21946  23206035.495    23206034.475    23206034.307
 112381545.91948  87570017.51646  21385489.690    21385488.439    21385486.137
 116140757.82748  90499305.70247  22100845.232    22100844.799    22100841.494
 129121279.85947 100613991.01743  24570964.621    24570963.186    24570959.900
 15 12 21  1 42 30.0000000  0  8G26G29G03G23G09G16G31G02
 108026742.58648  84176689.71648  20556799.645    20556799.044    20556800.020
 116252235.77148  90586162.67947  22122059.181    22122058.595    22122056.581
 129243595.58146 100709283.09046  24594229.160    24594228.693    24594227.055
 112536339.98948  87690657.92547  21414948.768    21414947.725    21414943.455
 121858918.12747  94955003.79547  23188974.245    23188973.662    23188973.755
 112302126.36648  87508132.02846  21370376.890    21370375.599    21370373.381
 116225789.30748  90565563.99847  22117025.936    22117025.447    22117022.478
 129153048.32646 100638745.25643  24577009.143    24577007.948    24577006.807
 15 12 21  1 43  0.0000000  0  8G26G29G03G23G09G16G31G02
 108008795.53949  84162704.94148  20553384.534    20553383.889    20553384.842
 116277794.99748  90606079.04747  22126922.814    22126922.414    22126920.576
 129347241.45846 100790046.09046  24613951.743    24613951.070    24613954.055
 112503414.19348  87665001.33647  21408683.240    21408682.247    21408678.101
 121769609.82547  94885412.88547  23171979.151    23171978.737    23171979.080
 112223160.96848  87446600.76546  21355350.104    21355348.857    21355346.514
 116311097.28848  90632037.75947  22133259.418    22133259.092    22133255.860
 129185316.68347 100663889.18144  24583151.645    24583150.183    24583147.058
 15 12 21  1 43 30.0000000  0  8G26G29G03G23G09G16G31G02
 107991407.58448  84149155.80248  20550075.728    20550075.092    20550076.013
 116303976.71848  90626480.30747  22131905.700    22131904.777    22131902.432
 129451054.30746 100870939.22946  24633707.073    24633707.525    24633707.613
 112471050.52948  87639782.86147  21402524.825    21402523.837    21402519.641
 121680653.24947  94816096.04547  23155051.797    23155051.126    23155050.378
 112144651.14548  87385424.09046  21340410.334    21340409.240    21340406.644
 116396681.44548  90698726.70847  22149545.652    22149545.179    22149542.059
 129218084.78546 100689422.54644  24589386.267    24589385.061    24589382.663
 15 12 21  1 44  0.0000000  0  8G26G29G03G23G09G16G31G02
 107974579.60048  84136043.40548  20546873.312    20546872.632    20546873.511
 116330780.96648  90647366.86247  22137005.984    22137005.188    22137002.941
 129555031.14346 100951960.08646  24653494.785    24653494.590    24653491.036
 112439250.02448  87615003.20547  21396473.211    21396472.448    21396468.363
 121592050.99347  94747055.20046  23138191.602    23138190.749    23138190.310
 112066599.54048  87324604.53046  21325557.725    21325556.412    21325554.246
 116482540.24348  90765629.64147  22165884.162    22165883.723    22165880.303
 129251351.39147 100715344.55644  24595715.886    24595714.975    24595711.670
 15 12 21  1 44 30.0000000  0  8G26G29G03G23G09G16G31G02
 107958311.37248  84123367.08948  20543777.406    20543776.653    20543777.519
 116358206.49048  90668737.27347  22142224.800    22142224.087    22142222.193
 129659169.40646 101033106.68445  24673311.992    24673311.633    24673310.650
 112408014.83248  87590664.09847  21390529.208    21390528.459    21390524.239
 121503806.33247  94678293.14447  23121398.569    23121397.433    23121397.969
 111989008.14848  87264143.57346  21310792.751    21310791.470    21310789.297
 116568672.75448  90832745.79147  22182274.871    22182274.427    22182270.869
 129285115.91247 100741654.82444  24602142.999    24602142.214    24602137.254
 15 12 21  1 45  0.0000000  0  8G26G29G03G23G09G16G31G02
 107942601.81349  84111126.02948  20540787.774    20540787.118    20540787.967
 116386251.70848  90690590.79547  22147561.495    22147561.169    22147558.547
 129763464.83645 101114375.81845  24693157.629    24693156.967    24693156.781
 112377344.77848  87566765.40247  21384692.882    21384692.095    21384688.009
 121415920.40347  94609810.62947  23104674.618    23104674.058    23104674.368
 111911878.14048  87204042.29546  21296115.286    21296113.997    21296111.717
 116655076.07547  90900072.95047  22198716.675    22198716.389    22198713.157
 129319376.01746 100768351.35544  24608660.970    24608660.046    24608657.188
 15 12 21  1 45 30.0000000  0  8G26G29G03G23G09G16G31G02
 107927452.33349  84099321.30848  20537905.138    20537904.274    20537905.150
 116414916.35848  90712926.99847  22153016.017    22153015.688    22153013.546
 129867915.76546 101195766.12146  24713031.998    24713032.891    24713033.862
 112347242.62748  87543309.28847  21378964.806    21378963.720    21378959.637
 121328397.04947  94541610.64247  23088019.156    23088018.557    23088018.745
 111835211.79248  87144302.21646  21281526.171    21281524.967    21281522.666
 116741750.19548  90967611.19547  22215210.248    22215209.621    22215206.441
 129354131.64946 100795434.01244  24615273.733    24615272.255    24615268.817
 15 12 21  1 46  0.0000000  0  8G26G29G03G23G09G16G31G02
 107912862.15748  84087952.27148  20535128.409    20535127.785    20535128.634
 116444198.91648  90735744.71747  22158587.962    22158587.781    22158585.301
 129972518.60146 101277274.90245  24732939.777    24732939.825    24732940.462
 112317708.85748  87520296.00947  21373344.640    21373343.575    21373339.353
 121241237.99647  94473694.56347  23071433.739    23071432.815    23071433.270
 111759010.87548  87084924.97846  21267025.530    21267024.234    21267022.031
 116828693.05348  91035358.88847  22231755.120    22231754.362    22231751.221
 129389380.40847 100822900.87444  24621983.015    24621981.583    24621977.859
 15 12 21  1 46 30.0000000  0  8G26G29G03G23G09G16G31G02
 107898831.90548  84077019.66248  20532458.484    20532458.000    20532458.689
 116474096.98148  90759041.81147  22164277.671    22164276.768    22164275.028
 130077270.16746 101358899.44046  24752873.017    24752872.845    24752870.282
 112288744.76548  87497726.61547  21367832.803    21367831.723    21367827.786
 121154445.56647  94406064.08247  23054917.444    23054916.684    23054917.652
 111683276.60248  87025911.32046  21252613.863    21252612.556    21252610.372
 116915902.68848  91103314.33847  22248351.051    22248350.051    22248346.479
 129425121.13646 100850751.15344  24628783.205    24628782.213    24628778.990
 15 12 21  1 47  0.0000000  0  8G26G29G03G23G09G16G31G02
 107885361.38449  84066523.13248  20529895.198    20529894.513    20529895.400
 116504611.06348  90782819.01447  22170083.912    22170083.804    22170081.819
 130182167.37345 101440637.36146  24772835.074    24772833.288    24772834.572
 112260351.88748  87475602.36847  21362429.852    21362428.995    21362424.768
 121068022.75247  94338721.66647  23038471.779    23038470.749    23038470.674
 111608011.02848  86967262.86846  21238290.952    21238290.060    21238287.660
 117003378.24548  91171477.10847  22264996.567    22264996.054    22264992.761
 129461352.58546 100878983.60644  24635677.680    24635676.230    24635671.825
 15 12 21  1 47 30.0000000  0  8G26G29G03G23G09G16G31G02
 107872450.50848  84056462.71448  20527438.391    20527437.790    20527438.559
 116535739.19848  90807074.68647  22176007.767    22176007.012    22176004.968
 130287207.29046 101522486.67445  24792821.785    24792820.772    24792822.337
 112232530.94548  87453923.79647  21357135.601    21357134.626    21357130.446
 120981971.66347  94271668.98447  23022096.738    23022096.279    23022096.392
 111533215.40948  86908980.66346  21224058.008    21224056.707    21224054.576
 117091117.74848  91239845.56847  22281692.732    22281692.448    22281689.158
 129498073.50346 100907597.66144  24642664.520    24642663.699    24642660.494
 15 12 21  1 48  0.0000000  0  8G26G29G03G23G09G16G31G02
 107860099.41649  84046838.52048  20525088.037    20525087.483    20525088.186
 116567479.99648  90831807.82247  22182047.882    22182047.044    22182045.320
 130392386.71746 101604444.64046  24812837.499    24812837.159    24812837.718
 112205283.54148  87432692.12547  21351950.436    21351949.689    21351945.464
 120896294.72247  94204907.78747  23005793.090    23005792.232    23005792.391
 111458892.05048  86851066.56746  21209914.522    21209913.263    21209910.908
 117179119.67348  91308418.53547  22298438.938    22298438.449    22298435.465
 129535282.32846 100936591.89744  24649745.020    24649744.728    24649741.256
 15 12 21  1 48 30.0000000  0  8G26G29G03G23G09G16G31G02
 107848309.26148  84037651.49048  20522844.392    20522843.710    20522844.470
 116599833.75047  90857018.60247  22188204.516    22188203.700    22188201.985
 130497703.86746 101686509.98045  24832879.363    24832879.603    24832879.226
 112178611.69948  87411908.87847  21346875.161    21346874.173    21346869.964
 120810995.44347  94138440.86147  22989561.149    22989560.960    22989560.465
 111385043.19648  86793522.20446  21195861.435    21195860.205    21195857.766
 117267383.50048  91377195.54847  22315234.996    22315234.673    22315231.283
 129572978.52846 100965965.69943  24656918.701    24656917.769    24656914.027
 15 12 21  1 49  0.0000000  0  8G26G29G03G23G09G16G31G02
 107837078.57849  84028900.35348  20520707.239    20520706.597    20520707.278
 116632797.93447  90882705.30247  22194476.982    22194476.690    22194474.355
 130603154.79146 101768679.47746  24852945.452    24852945.531    24852944.829
 112152515.57648  87391574.35047  21341909.100    21341908.228    21341903.937
 120726075.39947  94072269.46847  22973400.899    22973400.086    22973401.152
 111311669.14448  86736347.59846  21181898.919    21181897.533    21181895.217
 117355906.65748  91446174.61347  22332080.687    22332080.002    22332076.829
 129611159.62845 100995717.33043  24664182.085    24664180.756    24664179.597
 15 12 21  1 49 30.0000000  0  8G26G29G03G23G09G16G31G02
 107826407.46248  84020584.91048  20518676.782    20518676.193    20518676.926
 116666371.05747  90908866.20747  22200866.512    22200865.367    22200863.498
 130708736.78346 101850951.33245  24873035.011    24873034.479    24873037.134
 112126996.76448  87371689.64547  21337052.948    21337052.101    21337047.914
 120641537.45447  94006395.78147  22957314.746    22957314.351    22957313.090
 111238772.21148  86679544.67646  21168026.916    21168025.775    21168023.409
 117444688.26348  91515355.20047  22348975.140    22348974.623    22348971.348
 129649825.33946 101025846.67843  24671543.441    24671542.794    24671536.295
 15 12 21  1 50  0.0000000  0  8G26G29G03G23G09G16G31G02
 107816296.51148  84012706.21648  20516752.550    20516752.073    20516752.910
 116700552.62847  90935501.48447  22207369.934    22207369.562    22207367.425
 130814446.30646 101933322.34945  24893153.588    24893152.910    24893151.173
 112102056.11848  87352255.50247  21332306.653    21332305.950    21332301.651
 120557383.68547  93940821.45947  22941299.205    22941298.968    22941299.991
 111166353.55548  86623114.31046  21154246.239    21154245.075    21154242.889
 117533725.72348  91584735.03147  22365917.987    22365917.776    22365914.610
 129688973.24845 101056351.44343  24678992.165    24678990.733    24678986.143
 15 12 21  1 50 30.0000000  0  8G26G29G03G23G09G16G31G02
 107806745.29448  84005263.49848  20514935.326    20514934.672    20514935.492
 116735340.20347  90962608.76447  22213989.180    22213989.396    22213987.384
 130920280.86446 102015790.79545  24913291.775    24913291.998    24913293.715
 112077695.40248  87333273.25747  21327671.029    21327670.147    21327665.725
 120473617.08947  93875548.80747  22925360.867    22925360.249    22925358.805
 111094416.03048  86567059.06646  21140556.952    21140555.889    21140553.701
 117623018.77248  91654314.02447  22382909.811    22382909.334    22382906.442
 129728602.80745 101087231.66443  24686531.578    24686530.053    24686527.116
 15 12 21  1 51  0.0000000  0  8G26G29G03G23G09G16G31G02
 107797753.44548  83998256.60548  20513224.503    20513223.778    20513224.704
 116770733.19847  90990187.73347  22220724.716    22220724.529    22220722.595
 131026236.79346 102098353.77746  24933454.636    24933455.951    24933454.330
 112053914.63048  87314742.82847  21323145.581    21323144.746    21323140.328
 120390239.64747  93810579.47647  22909493.132    22909492.469    22909493.339
 111022960.04048  86511378.91046  21126959.475    21126958.362    21126956.152
 117712565.30148  91724090.62347  22399950.060    22399949.485    22399946.650
 129768711.27746 101118484.96343  24694165.130    24694163.954    24694159.645
 15 12 21  1 51 30.0000000  0  8G26G29G03G23G09G16G31G02
 107789322.78749  83991687.27948  20511620.111    20511619.520    20511620.379
 116806731.05048  91018237.99547  22227575.883    22227574.641    22227572.277
 131132312.89946 102181010.40446  24953641.918    24953640.811    24953640.999
 112030716.68148  87296666.56647  21318731.187    21318730.378    21318725.764
 120307255.02547  93745916.21447  22893702.410    22893702.030    22893701.594
 110951988.81548  86456076.52447  21113454.413    21113453.090    21113451.011
 117802364.57248  91794064.11147  22417038.426    22417037.903    22417034.744
 129809300.12446 101150112.67643  24701889.400    24701887.905    24701884.270
 15 12 21  1 52  0.0000000  0  8G26G29G03G23G09G16G31G02
 107781450.52149  83985552.95848  20510122.529    20510121.781    20510122.542
 116843330.81148  91046757.37647  22234539.958    22234539.217    22234536.963
 131238503.97545 102263756.51546  24973848.070    24973847.050    24973848.108
 112008100.12048  87279043.34447  21314427.216    21314426.412    21314421.888
 120224663.60047  93681559.27347  22877985.523    22877984.468    22877984.885
 110881502.80148  86401152.55947  21100041.288    21100040.100    21100037.900
 117892413.36848  91864232.05247  22434174.127    22434173.492    22434170.593
 129850364.61545 101182111.06943  24709702.905    24709700.945    24709697.862
 15 12 21  1 52 30.0000000  0  8G26G29G03G23G09G16G31G02
 107774137.94748  83979854.74648  20508730.773    20508730.160    20508730.981
 116880531.40148  91075744.86847  22241619.257    22241618.694    22241616.233
 131344808.19646 102346590.90446  24994077.347    24994077.405    24994077.244
 111986067.90948  87261875.46847  21310234.756    21310233.657    21310229.358
 120142469.14548  93617511.60647  22862344.776    22862344.292    22862344.267
 110811503.18748  86346607.25047  21086720.887    21086719.601    21086717.479
 117982711.72348  91934594.49247  22451357.214    22451356.489    22451353.648
 129891904.71746 101214480.20743  24717607.057    24717606.592    24717603.278
 15 12 21  1 53  0.0000000  0  8G26G29G03G23G09G16G31G02
 107767385.13049  83974592.63048  20507445.874    20507445.214    20507446.298
 116918331.97448  91105199.78647  22248812.117    22248811.680    22248809.584
 131451223.12446 102429511.51346  25014328.616    25014327.701    25014328.166
 111964621.24549  87245163.79647  21306153.520    21306152.596    21306148.273
 120060674.54947  93553775.54847  22846779.312    22846779.013    22846778.900
 110741993.17048  86292443.63647  21073493.466    21073492.230    21073489.939
 118073258.33948  92005150.38447  22468587.473    22468587.011    22468583.915
 129933920.06946 101247219.48642  24725603.488    24725602.577    24725597.306
 15 12 21  1 53 30.0000000  0  8G26G29G03G23G09G16G31G02
 107761191.25448  83969766.39548  20506267.156    20506266.452    20506267.472
 116956730.74547  91135121.05047  22256118.966    22256118.818    22256116.497
 131557744.07746 102512514.82745  25034598.297    25034597.029    25034597.984
 111943759.22548  87228907.57247  21302183.743    21302182.874    21302178.327
 119979280.74247  93490351.73247  22831291.084    22831290.418    22831290.540
 110672971.82548  86238660.61047  21060359.440    21060358.081    21060355.886
 118164049.77848  92075896.98247  22485864.647    22485864.154    22485861.159
 129976406.18246 101280325.56142  24733688.080    24733686.996    24733682.127
 15 12 21  1 54  0.0000000  0  8G26G29G03G23G09G16G31G02
 107755556.50848  83965375.82048  20505194.713    20505194.067    20505194.846
 116995726.57047  91165507.49547  22263540.210    22263539.295    22263536.769
 131664369.41346 102595599.46846  25054887.622    25054887.674    25054888.729
 111923484.53648  87213109.05847  21298325.591    21298324.879    21298320.237
 119898291.20347  93427242.91847  22815879.606    22815878.913    22815878.161
 110604442.64748  86185261.23847  21047318.625    21047317.342    21047315.392
 118255085.99648  92146834.36747  22503188.219    22503187.879    22503184.634
 130019363.28546 101313798.57543  24741861.595    24741860.248    24741856.463
 15 12 21  1 54 30.0000000  0  8G26G29G03G23G09G16G31G02
 107750481.75748  83961421.65348  20504228.831    20504228.190    20504229.187
 117035317.89848  91196357.69147  22271074.102    22271073.623    22271070.912
 131771096.82646 102678763.62846  25075196.960    25075196.622    25075198.325
 111903798.58948  87197769.22247  21294579.308    21294578.548    21294574.178
 119817709.29847  93364451.67347  22800544.632    22800543.756    22800544.078
 110536407.67148  86132246.95647  21034371.935    21034370.918    21034368.723
 118346366.16248  92217961.78347  22520558.238    22520557.930    22520554.423
 130062790.95746 101347638.26643  24750127.006    24750126.123    24750121.499
 15 12 21  1 55  0.0000000  0  8G26G29G03G23G09G16G31G02
 107745965.52248  83957902.79848  20503369.198    20503368.593    20503369.437
 117075503.29948  91227671.11447  22278721.129    22278720.536    22278717.994
 131877922.11446 102762004.00746  25095526.649    25095526.003    25095525.617
 111884701.42348  87182888.21447  21290945.736    21290944.802    21290940.425
 119737536.38247  93301979.18847  22785288.856    22785288.444    22785287.618
 110468867.54848  86079618.37747  21021519.454    21021518.336    21021515.976
 118437887.56848  92289277.18047  22537974.555    22537973.864    22537970.621
 130106686.38846 101381842.46143  24758477.952    24758476.048    24758473.429
 15 12 21  1 55 30.0000000  0  8G26G29G03G23G09G16G31G02
 107742005.83548  83954817.10048  20502616.013    20502615.430    20502616.235
 117116280.23048  91259445.38647  22286480.214    22286479.937    22286477.190
 131984841.74446 102845317.87945  25115872.465    25115871.070    25115871.437
 111866193.16248  87168466.10447  21287423.704    21287422.796    21287418.446
 119657773.89847  93239826.42647  22770110.444    22770109.699    22770110.211
 110401823.48748  86027376.55847  21008761.076    21008759.974    21008757.619
 118529648.03747  92360778.83847  22555435.666    22555435.246    22555431.463
 130151047.19446 101416409.32443  24766920.595    24766919.737    24766915.990
 15 12 21  1 56  0.0000000  0  8G26G29G03G23G09G16G31G02
 107738605.04848  83952167.14248  20501968.862    20501968.095    20501968.975
 117157648.32747  91291680.32847  22294352.217    22294352.003    22294349.669
 132091854.25946 102928704.26445  25136236.334    25136236.406    25136236.287
 111848275.96048  87154504.62547  21284014.190    21284013.456    21284009.008
 119578425.89647  93177996.74647  22755011.224    22755010.169    22755010.723
 110335277.56648  85975523.03847  20996097.675    20996096.401    20996094.137
 118621646.89747  92432466.21747  22572942.453    22572941.826    22572939.066
 130195873.07546 101451338.62242  24775451.665    24775449.849    24775442.029
 15 12 21  1 56 30.0000000  0  8G26G29G03G23G09G16G31G02
 107735763.33448  83949952.96948  20501428.039    20501427.305    20501428.125
 117199606.29048  91324374.85247  22302337.188    22302336.464    22302333.625
 132198956.83246 103012160.75545  25156616.761    25156616.951    25156615.556
 111830951.49148  87141005.06147  21280717.507    21280716.600    21280712.082
 119499495.25047  93116492.27547  22739991.533    22739990.340    22739990.515
 110269230.72948  85924057.69447  20983529.513    20983528.389    20983526.025
 118713883.73848  92504339.02947  22590494.651    22590493.732    22590491.101
 130241162.60146 101486629.14542  24784068.680    24784066.895    24784064.887
 15 12 21  1 57  0.0000000  0  8G26G29G03G23G09G16G31G02
 107733479.91448  83948173.97448  20500993.170    20500992.476    20500993.354
 117242152.55947  91357527.97847  22310432.541    22310432.397    22310430.058
 132306146.20545 103095684.89145  25177014.656    25177013.503    25177013.718
 111814220.28948  87127967.76147  21277533.623    21277532.745    21277528.315
 119420983.89947  93055314.61947  22725050.869    22725050.397    22725050.782
 110203686.91648  85872985.28547  20971056.436    20971055.284    20971052.738
 118806356.25947  92576395.42347  22608091.431    22608091.002    22608088.044
 130286914.02947 101522279.41243  24792776.142    24792774.259    24792767.296
 15 12 21  1 57 30.0000000  0  8G26G29G03G23G09G16G31G02
 107731753.33949  83946828.79948  20500664.625    20500663.795    20500664.634
 117285284.15347  91391137.04347  22318640.642    22318639.895    22318637.302
 132413418.76045 103179273.77345  25197427.288    25197426.098    25197426.685
 111798082.03748  87115392.50147  21274462.394    21274461.641    21274457.309
 119342893.48948  92994464.94847  22710191.063    22710190.193    22710189.762
 110138643.91648  85822302.48047  20958679.251    20958678.097    20958675.246
 118899062.63348  92648634.16147  22625732.816    22625732.394    22625729.561
 130333125.11646 101558287.94943  24801569.723    24801567.515    24801565.016
 15 12 21  1 58  0.0000000  0  8G26G29G03G23G09G16G31G02
 107730583.71548  83945917.52348  20500441.854    20500441.132    20500441.903
 117328999.95747  91425201.23446  22326959.096    22326958.868    22326956.589
 132520771.91145 103262925.46545  25217856.270    25217855.909    25217856.671
 111782538.24049  87103280.49647  21271504.676    21271503.626    21271499.395
 119265226.82747  92933945.48047  22695410.683    22695410.035    22695411.014
 110074104.37248  85772011.92147  20946397.636    20946396.451    20946393.976
 118992001.43747  92721054.04047  22643418.325    22643417.976    22643414.983
 130379794.23746 101594653.37743  24810449.906    24810448.219    24810443.116
 15 12 21  1 58 30.0000000  0  7G26G29G23G09G16G31G02
 107729969.98348  83945439.31348  20500324.976    20500324.263    20500324.973
 117373297.95147  91459719.12747  22335389.138    22335388.746    22335385.888
 111767588.84048  87091631.66847  21268659.733    21268658.953    21268654.592
 119187985.62147  92873757.53747  22680713.175    22680712.820    22680711.990
 110010069.16948  85722114.20647  20934212.146    20934211.111    20934208.464
 119085170.44547  92793653.26647  22661147.737    22661147.793    22661144.452
 130426919.20947 101631373.92143  24819418.674    24819417.362    24819414.301
 15 12 21  1 59  0.0000000  0  7G26G29G23G09G16G31G02
 107729912.32648  83945394.36748  20500313.943    20500313.317    20500314.104
 117418176.19347  91494688.99747  22343929.089    22343928.839    22343926.031
 111753235.18248  87080447.05647  21265928.287    21265927.303    21265923.177
 119111172.76947  92813903.43947  22666095.283    22666094.697    22666095.339
 109946540.67748  85672611.49247  20922123.243    20922122.033    20922119.492
 119178568.80247  92866431.23547  22678921.157    22678920.556    22678917.477
 130474499.10446 101668449.03743  24828471.692    24828469.142    24828465.180
 15 12 21  1 59 30.0000000  0  7G26G29G23G09G16G31G02
 107730411.84048  83945783.55748  20500409.052    20500408.538    20500409.200
 117463634.52848  91530110.68947  22352579.295    22352579.503    22352577.283
 111739479.41648  87069728.32247  21263310.753    21263309.888    21263305.297
 119034791.89847  92754385.89447  22651560.892    22651560.203    22651560.414
 109883521.77348  85623505.88647  20910131.198    20910130.100    20910127.304
 119272195.97348  92939387.49847  22696737.723    22696737.183    22696734.371
 130522532.86446 101705877.77543  24837612.613    24837611.541    24837609.003
 15 12 21  2  0  0.0000000  0  7G26G29G23G09G16G31G02
 107731466.97549  83946605.73248  20500610.001    20500609.248    20500609.865
 117509671.22547  91565983.42547  22361340.562    22361339.657    22361337.370
 111726321.13848  87059475.13647  21260806.569    21260805.919    21260801.387
 118958844.23447  92695205.95547  22637108.634    22637108.103    22637108.153
 109821011.94848  85574796.84247  20898236.105    20898234.967    20898232.218
 119366049.44348  93012520.10347  22714597.442    22714597.084    22714594.054
 130571018.61547 101743658.87943  24846840.123    24846839.373    24846834.552
 15 12 21  2  0 30.0000000  0  7G26G29G23G09G16G31G02
 107733077.64248  83947860.75348  20500916.435    20500915.671    20500916.460
 117556283.43947  91602304.18247  22370211.107    22370210.539    22370208.241
 111713761.25648  87049688.35647  21258416.621    21258415.653    21258411.345
 118883332.48547  92636365.66547  22622739.290    22622738.477    22622738.830
 109759013.20948  85526485.98347  20886438.232    20886436.869    20886434.560
 119460127.93848  93085827.98347  22732500.357    22732499.712    22732496.396
 130619954.36446 101781790.67643  24856150.799    24856149.629    24856145.801
 15 12 21  2  1  0.0000000  0  7G26G29G23G09G16G31G02
 107735244.46449  83949549.22648  20501328.680    20501328.088    20501328.680
 117603472.20847  91639074.83647  22379189.911    22379189.558    22379187.659
 111701801.41248  87040369.04547  21256140.562    21256139.665    21256135.214
 118808259.92247  92577867.64047  22608453.118    22608452.354    22608452.296
 109697528.08748  85478575.53447  20874738.020    20874736.653    20874734.055
 119554430.44248  93159310.31047  22750446.055    22750445.319    22750441.910
 130669339.33146 101820272.41343  24865549.509    24865547.735    24865544.322
 15 12 21  2  1 30.0000000  0  7G26G29G23G09G16G31G02
 107737964.95849  83951669.12648  20501846.210    20501845.657    20501846.381
 117651232.48247  91676290.75647  22388278.934    22388278.296    22388276.137
 111690440.45748  87031516.35147  21253978.674    21253977.618    21253973.195
 118733626.99148  92519712.17147  22594250.904    22594250.488    22594250.522
 109636556.14448  85431065.13547  20863135.336    20863133.964    20863131.387
 119648954.38348  93232965.33747  22768433.134    22768432.181    22768429.469
 130719169.67746 101859101.14443  24875032.025    24875030.705    24875027.212
 15 12 21  2  2  0.0000000  0  7G26G29G23G09G16G31G02
 107741239.82949  83954220.98448  20502469.601    20502468.964    20502469.662
 117699563.46747  91713951.36147  22397475.670    22397474.961    22397472.630
 111679680.39248  87023131.97847  21251930.909    21251930.006    21251925.836
 118659437.22047  92461902.03947  22580133.252    22580132.566    22580132.253
 109576099.25848  85383955.89947  20851630.626    20851629.266    20851626.782
 119743698.97447  93306792.32047  22786461.501    22786461.292    22786458.564
 130769444.84146 101898276.59543  24884598.043    24884597.374    24884593.654
 15 12 21  2  2 30.0000000  0  7G26G29G23G09G16G31G02
 107745070.12249  83957205.63948  20503198.511    20503197.999    20503198.564
 117748464.12547  91752055.37047  22406781.946    22406781.204    22406778.859
 111669522.98748  87015217.14447  21249998.065    21249997.084    21249992.791
 118585694.31647  92404440.08447  22566099.791    22566098.600    22566099.319
 109516160.26548  85337250.14547  20840224.551    20840223.292    20840220.773
 119838663.85448  93380790.94447  22804533.063    22804532.518    22804529.796
 130820164.50646 101937798.39842  24894250.758    24894248.967    24894245.297
 15 12 21  2  3  0.0000000  0  7G26G29G23G09G16G31G02
 107749453.35648  83960621.14448  20504032.530    20504031.807    20504032.612
 117797932.59747  91790602.22246  22416194.687    22416194.355    22416192.270
 111659967.18149  87007771.20747  21248179.578    21248178.609    21248174.081
 118512398.70347  92347326.66347  22552153.012    22552152.491    22552152.209
 109456739.06248  85290947.97347  20828916.963    20828915.785    20828913.272
 119933845.85047  93454958.73747  22822645.701    22822645.288    22822641.827
 130871324.75646 101977663.45643  24903984.699    24903984.300    24903982.332
 15 12 21  2  3 30.0000000  0  7G26G29G23G09G16G31G02
 107754389.65849  83964467.61048  20504971.963    20504971.277    20504972.062
 117847967.59647  91829590.91746  22425716.705    22425715.882    22425713.106
 111651014.03648  87000794.83847  21246475.776    21246474.811    21246470.386
 118439553.31847  92290564.05147  22538290.334    22538289.834    22538289.408
 109397836.80248  85245049.97747  20817708.410    20817707.285    20817704.774
 120029244.24947  93529295.17446  22840799.800    22840799.489    22840795.308
 130922924.92646 102017871.26343  24913805.493    24913804.124    24913798.767
 15 12 21  2  4  0.0000000  0  7G26G29G23G09G16G31G02
 107759877.20049  83968743.54048  20506016.263    20506015.632    20506016.347
 117898564.12847  91869016.78846  22435344.044    22435343.665    22435341.926
 111642663.21748  86994287.81947  21244886.632    21244885.845    21244881.257
 118367159.38947  92234153.26547  22524514.361    22524513.572    22524513.756
 109339453.98548  85199556.76947  20806599.039    20806597.671    20806595.190
 120124856.22347  93603798.05847  22858994.128    22858993.142    22858990.589
 130974961.54946 102058419.23942  24923707.711    24923706.081    24923703.162
 15 12 21  2  4 30.0000000  0  7G26G29G23G09G16G31G02
 107765916.76549  83973449.52448  20507165.537    20507164.803    20507165.644
 117949722.22648  91908880.09047  22445079.939    22445079.044    22445077.191
 111634916.30449  86988251.35047  21243412.352    21243411.615    21243406.876
 118295220.40347  92178096.94747  22510824.671    22510824.295    22510823.796
 109281593.27448  85154470.40847  20795588.155    20795586.906    20795584.507
 120220681.17047  93678466.79647  22877228.053    22877227.966    22877225.143
 131027433.89746 102099306.69042  24933693.042    24933691.235    24933687.162
 15 12 21  2  5  0.0000000  0  7G26G29G23G09G16G31G02
 107772507.75249  83978585.14248  20508419.848    20508419.178    20508420.272
 118001439.80147  91949179.09847  22454921.116    22454921.134    22454918.177
 111627773.87649  86982685.91147  21242053.129    21242052.265    21242047.788
 118223738.58347  92122396.84347  22497222.288    22497221.143    22497222.095
 109224256.01748  85109792.06347  20784677.169    20784675.921    20784673.394
 120316717.78748  93753300.49247  22895504.771    22895503.859    22895500.416
 131080340.54746 102140532.65343  24943759.958    24943759.686    24943755.989
 15 12 21  2  5 30.0000000  0  7G26G29G23G09G16G31G02
 107779650.17548  83984150.48848  20509779.296    20509778.677    20509779.512
 118053716.17147  91989913.57447  22464869.536    22464868.991    22464866.812
 111621236.52948  86977591.87147  21240809.163    21240808.209    21240803.623
 118152716.66948  92067055.16147  22483706.929    22483706.580    22483706.279
 109167443.65248  85065522.76847  20773866.074    20773864.842    20773862.205
 120412964.81947  93828298.17346  22913819.300    22913818.875    22913815.124
 131133679.74946 102182095.63243  24953910.637    24953909.876    24953903.508
 15 12 21  2  6  0.0000000  0  7G26G29G23G09G16G31G02
 107787344.03249  83990145.75848  20511243.338    20511242.758    20511243.597
 118106548.74947  92031081.24446  22474923.588    22474923.430    22474921.403
 111615304.99048  86972969.80947  21239680.505    21239679.564    21239674.887
 118082157.12347  92012073.75347  22470279.892    22470279.161    22470279.509
 109111157.43948  85021663.41547  20763155.141    20763153.972    20763151.325
 120509420.87147  93903458.77346  22932173.637    22932173.667    22932169.970
 131187449.59946 102223994.25243  24964143.183    24964141.647    24964138.436
 15 12 21  2  6 30.0000000  0  7G26G29G23G09G16G31G02
 107795588.15948  83996569.93948  20512811.995    20512811.343    20512812.087
 118159937.78247  92072683.49547  22485082.960    22485082.378    22485080.656
 111609979.24648  86968819.66447  21238667.180    21238666.379    21238661.740
 118012061.87747  91957454.15147  22456941.183    22456940.581    22456940.506
 109055397.93048  84978214.31547  20752544.640    20752543.435    20752540.848
 120606084.32047  93978780.91946  22950568.532    22950568.138    22950565.528
 131241648.06246 102266226.89143  24974454.825    24974453.044    24974451.995
 15 12 21  2  7  0.0000000  0  7G26G29G23G09G16G31G02
 107804381.13048  84003421.64348  20514485.102    20514484.526    20514485.463
 118213877.95247  92114714.75146  22495347.179    22495347.164    22495344.607
 111605259.54348  86965141.66247  21237769.279    21237768.369    21237763.979
 117942432.92547  91903197.91847  22443690.762    22443689.974    22443691.072
 109000166.20248  84935176.37447  20742034.462    20742033.201    20742030.812
 120702953.21447  94054263.19946  22969001.825    22969001.396    22968998.010
 131296273.02046 102308791.80543  24984851.569    24984850.845    24984846.412
 15 12 21  2  7 30.0000000  0  7G26G29G23G09G16G31G02
 107813722.50449  84010700.75148  20516262.953    20516262.373    20516263.083
 118268367.83647  92157174.13846  22505716.968    22505716.535    22505714.386
 111601146.51548  86961936.47847  21236986.956    21236985.761    21236981.558
 117873272.23747  91849306.57347  22430530.640    22430529.609    22430529.347
 108945464.88148  84892552.47047  20731624.766    20731623.570    20731621.189
 120800025.55747  94129903.99346  22987473.573    22987473.732    22987471.277
 131351322.12945 102351687.13543  24995325.236    24995323.918    24995320.947
 15 12 21  2  8  0.0000000  0  7G26G29G23G09G16G31G02
 107823611.33949  84018406.26548  20518144.614    20518143.994    20518144.737
 118323406.50447  92200061.71146  22516189.560    22516189.183    22516187.550
 111597640.99048  86959204.82647  21236319.763    21236318.767    21236314.500
 117804582.23447  91795781.98547  22417459.121    22417458.337    22417458.426
 108891293.45848  84850341.26947  20721315.991    20721314.808    20721312.259
 120897300.31647  94205702.53346  23005985.236    23005984.433    23005981.614
 131406793.88946 102394912.01243  25005882.586    25005881.387    25005877.585
 15 12 21  2  8 30.0000000  0  7G26G29G23G09G16G31G02
 107834046.91948  84026537.67648  20520130.421    20520129.776    20520130.586
 118378991.59647  92243375.25646  22526767.221    22526766.458    22526764.202
 111594742.73248  86956946.38947  21235768.330    21235767.295    21235763.174
 117736364.98448  91742625.76247  22404477.572    22404477.046    22404476.892
 108837653.16448  84808543.81747  20711108.457    20711107.293    20711104.660
 120994775.71347  94281657.44346  23024534.119    23024533.558    23024530.068
 131462685.71446 102438464.00543  25016515.213    25016515.346    25016513.851
 15 12 21  2  9  0.0000000  0  7G26G29G23G09G16G31G02
 107845030.88648  84035096.57448  20522220.815    20522220.238    20522220.945
 118435121.33847  92287112.74846  22537448.173    22537447.866    22537445.790
 111592453.66848  86955162.57547  21235332.840    21235331.983    21235327.663
 117668624.44947  91689841.01647  22391586.729    22391586.172    22391586.182
 108784546.45748  84767162.05447  20701002.518    20701001.412    20700998.713
 121092451.71747  94357768.57846  23043120.751    23043120.901    23043117.526
 131518997.56946 102482343.26143  25027235.259    25027234.181    25027229.471
 15 12 21  2  9 30.0000000  0  7G26G29G23G09G16G31G02
 107856560.50949  84044080.66848  20524414.909    20524414.066    20524415.043
 118491793.15747  92331272.63346  22548232.539    22548231.745    22548229.593
 111590772.84648  86953852.81447  21235012.987    21235012.045    21235007.726
 117601361.12048  91637428.09547  22378787.364    22378786.593    22378786.391
 108731973.16148  84726195.84747  20690998.218    20690997.051    20690994.470
 121190325.16747  94434033.61446  23061745.433    23061745.077    23061741.866
 131575725.49346 102526546.73842  25038029.770    25038027.352    25038024.334
 15 12 21  2 10  0.0000000  0  8G27G26G29G23G09G16G31G02
 132035488.69046 102884793.57946  25125515.973    25125514.855    25125518.033
 107868636.31849  84053490.32748  20526712.731    20526712.074    20526713.065
 118549005.31447  92375853.52446  22559119.231    22559119.042    22559116.672
 111589701.71248  86953018.15147  21234809.201    21234808.244    21234804.027
 117534578.60348  91585389.88647  22366079.003    22366078.511    22366078.136
 108679935.58748  84685647.10047  20681095.727    20681094.610    20681091.856
 121288395.95647  94510452.38646  23080408.322    23080407.434    23080404.211
 131632869.33146 102571074.33942  25048903.161    25048902.080    25048898.025
 15 12 21  2 10 30.0000000  0  8G27G26G29G23G09G16G31G02
 131914895.42946 102790825.04846  25102568.764    25102568.049    25102567.716
 107881257.67449  84063325.11748  20529114.466    20529113.978    20529114.836
 118606756.91247  92420854.90046  22570109.264    22570109.092    22570106.401
 111589240.32149  86952658.60447  21234721.465    21234720.394    21234716.128
 117468278.94448  91533727.91447  22353462.321    22353461.376    22353461.671
 108628434.94948  84645516.76147  20671295.554    20671294.323    20671291.683
 121386662.63747  94587023.87746  23099107.625    23099107.362    23099103.858
 131690426.75246 102615924.21042  25059856.323    25059854.750    25059851.387
 15 12 21  2 11  0.0000000  0  8G27G26G29G23G09G16G31G02
 131794324.01746 102696872.82545  25079623.129    25079623.884    25079625.927
 107894423.05349  84073583.75348  20531619.865    20531619.233    20531620.162
 118665045.33847  92466274.64346  22581201.262    22581200.802    22581198.108
 111589388.44548  86952774.09947  21234749.458    21234748.411    21234744.296
 117402463.72547  91482443.41747  22340937.957    22340937.130    22340936.976
 108577471.54548  84605804.97047  20661597.404    20661596.366    20661593.703
 121485122.79347  94663746.00946  23117843.834    23117843.112    23117840.379
 131748395.05247 102661094.22543  25070887.443    25070886.250    25070883.573
 15 12 21  2 11 30.0000000  0  8G27G26G29G23G09G16G31G02
 131673778.90546 102602941.87045  25056684.897    25056683.534    25056686.349
 107908130.25648  84084264.51348  20534228.383    20534227.931    20534228.700
 118723865.69147  92512108.66746  22592394.096    22592393.594    22592391.965
 111590144.81448  86953363.53447  21234893.397    21234892.446    21234888.198
 117337133.66648  91431536.95447  22328505.698    22328504.849    22328505.366
 108527045.11948  84566511.60247  20652001.679    20652000.506    20651997.950
 121583773.84447  94740616.98946  23136615.805    23136615.583    23136613.285
 131806771.36146 102706582.38643  25081995.483    25081993.964    25081991.887
 15 12 21  2 12  0.0000000  0  8G27G26G29G23G09G16G31G02
 131553261.25546 102509031.73845  25033751.781    25033751.449    25033751.370
 107922381.16149  84095368.95448  20536940.634    20536939.921    20536940.860
 118783218.89347  92558357.82646  22603689.079    22603688.525    22603685.563
 111591512.29748  86954429.16947  21235153.619    21235152.669    21235148.419
 117272293.41348  91381012.16147  22316167.105    22316166.630    22316166.185
 108477158.86648  84527639.09547  20642508.641    20642507.560    20642504.936
 121682616.42347  94817637.22246  23155425.081    23155424.883    23155422.278
 131865555.88746 102752388.61843  25093181.974    25093180.294    25093177.582
 15 12 21  2 12 30.0000000  0  8G27G26G29G23G09G16G31G02
 131432775.68446 102415147.07845  25010823.262    25010823.151    25010827.524
 107937173.79048  84106895.82348  20539755.242    20539754.527    20539755.797
 118843101.18448  92605019.27846  22615084.310    22615083.848    22615081.393
 111593489.12648  86955969.60747  21235529.629    21235528.753    21235524.511
 117207943.34848  91330869.33247  22303921.826    22303921.187    22303921.161
 108427812.91048  84489187.74647  20633118.356    20633117.237    20633114.672
 121781647.00647  94894803.90046  23174270.195    23174270.134    23174266.055
 131924744.16946 102798509.48143  25104445.216    25104443.545    25104441.366
 15 12 21  2 13  0.0000000  0  8G27G26G29G23G09G16G31G02
 131312323.04546                  24987901.551
 107952506.91448  84118843.75048  20542673.125    20542672.499    20542673.395
 118903510.63947  92652091.46046  22626579.572    22626578.838    22626577.109
 111596076.10948  86957985.46647  21236021.940    21236020.969    21236016.662
 117144085.94848  91281110.33847  22291770.209    22291769.324    22291769.075
 108379007.27948  84451157.17447  20623831.256    20623829.973    20623827.660
 121880864.71747  94972116.45646  23193150.306    23193149.765    23193147.166
 131984335.10246 102844944.12343  25115784.811    25115783.069    25115779.511
 15 12 21  2 13 30.0000000  0  8G27G26G29G23G09G16G31G02
 131191905.44746                  24964988.142
 107968381.43448  84131213.57948  20545693.788    20545693.174    20545693.977
 118964447.66547  92699575.27846  22638175.170    22638174.796    22638172.997
 111599274.54748  86960477.76847  21236630.230    21236629.482    21236625.282
 117080724.85448  91231738.10747  22279713.120    22279712.138    22279712.000
 108330745.49748  84413550.53947  20614647.339    20614646.173    20614643.685
 121980269.18947  95049574.54646  23212066.468    23212065.620    23212063.918
 132044327.62246 102891691.64242  25127201.021    25127199.759    25127196.713
 15 12 21  2 14  0.0000000  0  8G27G26G29G23G09G16G31G02
 131071527.18846                  24942080.428
 107984794.68248  84144003.08048  20548817.199    20548816.521    20548817.517
 119025906.99447  92747465.86846  22649870.207    22649870.078    22649867.660
 111603083.14848  86963445.49447  21237355.244    21237354.371    21237350.151
 117017860.59448  91182753.00547  22267750.544    22267749.597    22267749.325
 108283027.15948  84376367.67547  20605566.663    20605565.540    20605562.984
 122079857.69047  95127175.93646  23231017.958    23231017.369    23231014.078
 132104718.36446 102938749.44742  25138692.562    25138691.330    25138688.801
 15 12 21  2 14 30.0000000  0  8G27G26G29G23G09G16G31G02
 130951189.40446                  24919179.920
 108001747.08948  84157212.69248  20552043.177    20552042.534    20552043.566
 119087887.22747  92795762.06546  22661664.519    22661664.080    22661662.636
 111607503.06748  86966889.62047  21238196.381    21238195.449    21238191.154
 116955496.37448  91134157.54547  22255882.701    22255881.940    22255881.761
 108235853.02248  84339608.48647  20596589.951    20596588.645    20596586.099
 122179629.65647  95204920.34446  23250003.885    23250003.351    23250000.602
 132165506.45646 102986116.81242  25150260.512    25150259.473    25150255.731
 15 12 21  2 15  0.0000000  0  8G27G26G29G23G09G16G31G02
 130830895.25046 101946146.15045  24896289.394    24896287.996    24896287.082
 108019237.31748  84170841.39148  20555371.414    20555370.778    20555371.765
 119150386.93547  92844463.18346  22673557.967    22673557.717    22673555.626
 111612533.95248  86970809.84847  21239153.602    21239152.792    21239148.543
 116893633.71048  91085952.89647  22244110.832    22244109.903    22244109.692
 108189224.18248  84303274.17147  20587716.864    20587715.636    20587713.102
 122279582.87747  95282805.87746  23269024.790    23269023.861    23269020.978
 132226689.12946 103033792.04342  25161902.792    25161901.865    25161897.617
 15 12 21  2 15 30.0000000  0  8G27G26G29G23G09G16G31G02
 130710647.14946 101852446.17045  24873405.913    24873405.595    24873406.596
 108037265.23149  84184889.11648  20558801.976    20558801.416    20558802.312
 119213403.65147  92893566.95846  22685550.596    22685550.254    22685547.478
 111618176.47248  86975206.68147  21240227.269    21240226.327    21240222.043
 116832275.39048  91038141.26647  22232434.714    22232433.865    22232433.571
 108143142.40748  84267366.25247  20578947.602    20578946.374    20578944.085
 122379716.71647  95360832.22546  23288079.524    23288079.246    23288076.017
 132288264.18046 103081772.59042  25173620.150    25173618.216    25173614.143
 15 12 21  2 16  0.0000000  0  8G27G26G29G23G09G16G31G02
 130590448.41946 101758784.82445  24850533.892    24850531.803    24850534.740
 108055829.55349  84199354.94648  20562334.910    20562334.221    20562335.010
 119276935.39747  92943072.34246  22697639.769    22697639.104    22697637.481
 111624429.95249  86980079.52947  21241417.376    21241416.499    21241412.066
 116771422.91148  90990723.79447  22220854.407    22220853.732    22220853.666
 108097607.77948  84231884.72047  20570282.821    20570281.618    20570279.127
 122480029.02547  95438997.65146  23307167.337    23307167.341    23307164.379
 132350229.43046 103130057.21942  25185411.802    25185411.119    25185406.520
 15 12 21  2 16 30.0000000  0  8G27G26G29G23G09G16G31G02
 130470301.40246 101665164.57945  24827670.194    24827669.096    24827671.680
 108074928.26149  84214237.10048  20565968.971    20565968.285    20565969.292
 119340978.80747  92992976.62546  22709826.660    22709825.701    22709823.467
 111631293.81748  86985428.05447  21242723.556    21242722.699    21242718.073
 116711077.65048  90943701.54747  22209371.087    22209370.262    22209370.249
 108052620.69948  84196829.92647  20561721.981    20561720.927    20561718.316
 122580517.35347  95517300.17946  23326290.590    23326290.039    23326287.198
 132412582.35346 103178644.03142  25197277.233    25197276.352    25197271.435
 15 12 21  2 17  0.0000000  0  9G27G26G29G23G21G09G16G31G02
 130350207.99646 101571585.21345  24804817.001    24804815.998    24804817.745
 108094562.77249  84229536.70048  20569705.295    20569704.793    20569705.558
 119405533.33547  93043279.02246  22722110.465    22722110.665    22722107.458
 111638770.27848  86991253.93647  21244146.149    21244145.292    21244140.761
 135144310.20045                  25717107.242
 116651243.88748  90897077.85747  22197985.161    22197984.592    22197984.381
 108008184.00248  84162203.99947  20553265.840    20553264.584    20553262.091
 122681182.69047  95595740.64746  23345446.316    23345445.067    23345443.477
 132475322.74046 103227532.74642  25209215.871    25209214.743    25209211.282
 15 12 21  2 17 30.0000000  0  9G27G26G29G23G21G09G16G31G02
 130230172.33646 101478051.63245  24781976.207    24781974.364    24781974.526
 108114731.13849  84245252.41548  20573543.248    20573542.535    20573543.424
 119470595.98047  93093977.31346  22734490.993    22734490.571    22734488.859
 111646858.18648  86997556.26147  21245685.206    21245684.314    21245679.890
 135063235.24845                  25701678.154
 116591922.24148  90850853.21247  22186696.723    22186696.200    22186695.433
 107964297.02148  84128006.18447  20544914.603    20544913.513    20544910.975
 122782021.88847  95674316.55846  23364636.373    23364636.070    23364631.977
 132538446.90946 103276720.42641  25221228.657    25221226.410    25221223.529
 15 12 21  2 18  0.0000000  0  8G27G26G29G23G21G09G16G31
 130110196.22846 101384564.28146  24759143.502    24759143.686    24759144.529
 108135432.99248  84261383.88548  20577482.433    20577481.763    20577482.763
 119536164.61147  93145069.85046  22746969.195    22746968.874    22746966.408
 111655557.97848  87004335.40847  21247340.535    21247339.670    21247335.128
 134982314.25445                  25686279.918
 116533115.51148  90805029.79847  22175506.202    22175505.679    22175505.390
 107920961.83948  84094238.45647  20536668.263    20536667.069    20536664.522
 122883034.25847  95753027.40846  23383856.394    23383856.401    23383853.800
 15 12 21  2 18 30.0000000  0  8G27G26G29G23G21G09G16G31
 129990282.27646 101291125.44346  24736323.947    24736324.197    24736324.434
 108156666.81149  84277929.64848  20581523.146    20581522.499    20581523.499
 119602236.67147  93196554.39946  22759541.620    22759541.686    22759538.805
 111664869.81849  87011591.52047  21249112.773    21249111.841    21249107.179
 134901550.27845                  25670909.996
 116474825.64947  90759609.12647  22164414.018    22164413.238    22164412.696
 107878179.03048  84060901.13747  20528527.040    20528525.946    20528523.405
 122984218.19447  95831871.92246  23403112.576    23403112.002    23403109.054
 15 12 21  2 19  0.0000000  0  8G27G26G29G23G21G09G16G31
 129870432.47046 101197736.34946  24713516.954    24713516.684    24713518.748
 108178432.16949  84294889.76748  20585664.800    20585664.297    20585665.155
 119668810.10447  93248429.62546  22772210.877    22772210.253    22772208.303
 111674792.85748  87019323.81647  21251000.734    21250999.844    21250995.244
 134820944.68745                  25655571.813
 116417054.39548  90714592.55947  22153420.340    22153419.544    22153419.389
 107835948.48248  84027994.04547  20520490.874    20520489.834    20520487.373
 123085572.16947  95910849.02346  23422399.956    23422399.733    23422395.738
 15 12 21  2 19 30.0000000  0  8G27G26G29G23G21G09G16G31
 129750649.00246 101104398.86446  24690722.486    24690722.213    24690723.247
 108200727.02349  84312262.37948  20589907.417    20589906.836    20589907.746
 119735882.89947  93300694.27846  22784974.113    22784973.455    22784971.918
 111685326.20948  87027531.50947  21253005.280    21253004.495    21252999.962
 134740499.58145 104992589.7374   25640262.693    25640261.526    25640256.344
 116359803.20548  90669981.21947  22142525.477    22142524.976    22142525.016
 107794271.35148  83995518.34247  20512560.035    20512559.014    20512556.514
 123187093.95147  95989956.90846  23441717.814    23441717.053    23441715.030
 15 12 21  2 20  0.0000000  0  8G27G26G29G23G21G09G16G31
 129630935.40446 101011115.80346  24667941.681    24667941.214    24667942.849
 108223551.36748  84330047.63248  20594250.753    20594250.246    20594250.894
 119803452.65647  93353346.28046  22797830.911    22797830.879    22797829.137
 111696470.78248  87036215.42347  21255126.101    21255125.271    21255120.893
 134660218.41645 104930033.06041  25624986.407    25624984.701    25624986.420
 116303074.77248  90625777.22647  22131730.828    22131730.220    22131729.991
 107753148.94548  83963474.92447  20504734.779    20504733.541    20504731.035
 123288782.54947  96069194.74546  23461069.435    23461068.963    23461066.833
 15 12 21  2 20 30.0000000  0  8G27G26G29G23G21G09G16G31
 129511293.94646 100917889.04246  24645174.721    24645174.018    24645174.961
 108246903.46148  84348243.99648  20598694.479    20598693.829    20598694.710
 119871516.26247  93406382.99046  22810784.054    22810783.854    22810781.307
 111708226.30748  87045375.50347  21257363.175    21257362.307    21257357.890
 134580102.61245 104867605.22041  25609740.978    25609739.655    25609737.533
 116246870.64548  90581981.77947  22121035.905    22121035.272    22121034.507
 107712581.51148  83931863.93247  20497014.935    20497013.780    20497011.265
 123390636.14147  96148561.13446  23480451.527    23480450.713    23480449.368
 15 12 21  2 21  0.0000000  0  8G27G26G29G23G21G09G16G31
 129391726.79846 100824720.01746  24622421.214    24622422.227    24622421.468
 108270782.70949  84366851.13548  20603238.786    20603238.069    20603238.885
 119940071.41947  93459802.56346  22823830.021    22823829.571    22823827.142
 111720592.87148  87055011.81147  21259716.321    21259715.705    21259711.112
 134500155.48545 104805309.03441  25594526.752    25594526.705    25594524.276
 116191192.92748  90538596.52147  22110440.267    22110439.659    22110439.527
 107672570.14248  83900686.27847  20489401.038    20489399.718    20489397.396
 123492653.52847  96228055.18646  23499864.977    23499864.007    23499860.576
 15 12 21  2 21 30.0000000  0  8G27G26G29G23G21G09G16G31
 129272237.36746 100731611.37346  24599682.908    24599683.329    24599682.676
 108295188.79448  84385868.84548  20607883.219    20607882.495    20607883.333
 120009116.74647  93513604.20246  22836968.333    22836967.928    22836964.717
 111733570.85248  87065124.70947  21262186.064    21262185.034    21262180.775
 134420378.97746 104743145.66741  25579346.489    25579344.870    25579344.310
 116136044.20147  90495623.46947  22099945.869    22099945.216    22099944.696
 107633115.90148  83869942.75647  20481893.233    20481892.026    20481889.443
 123594833.54347  96307675.93346  23519309.462    23519308.749    23519304.885
 15 12 21  2 22  0.0000000  0  8G27G26G29G23G21G09G16G31
 129152827.40946 100638564.75946  24576958.652    24576958.458    24576961.810
 108320119.57949  84405295.49348  20612627.221    20612626.719    20612627.347
 120078648.62447  93567784.89546  22850199.920    22850199.160    22850196.889
 111747158.76748  87075712.95747  21264771.270    21264770.515    21264766.058
 134340775.48846 104681117.23541  25564197.950    25564195.486    25564196.502
 116081425.27648  90453063.26847  22089552.535    22089551.868    22089551.203
 107594218.18548  83839632.77547  20474491.224    20474490.002    20474487.546
 123697173.50747  96387421.33446  23538782.867    23538781.755    23538780.403
 15 12 21  2 22 30.0000000  0  8G27G26G29G23G21G09G16G31
 129033500.08146 100545582.60446  24554252.876    24554252.373    24554254.546
 108345574.08248  84425130.16348  20617471.131    20617470.397    20617471.156
 120148664.69447  93622342.73046  22863524.155    22863523.482    22863520.545
 111761356.49848  87086776.34047  21267472.994    21267472.103    21267467.592
 134261347.36646 104619225.4594   25549083.362    25549081.664    25549080.552
 116027338.27548  90410917.51447  22079259.916    22079259.204    22079258.650
 107555878.47948  83809757.72347  20467195.341    20467194.202    20467191.691
 123799672.59847  96467290.73646  23558289.020    23558288.920    23558285.475
 15 12 21  2 23  0.0000000  0  8G27G26G29G23G21G09G16G31
 128914258.20646 100452666.92346  24531562.247    24531561.123    24531562.271
 108371552.10248  84445372.68548  20622414.475    20622413.935    20622414.813
 120219163.91447  93677277.19646  22876939.525    22876939.120    22876936.184
 111776164.59848  87098315.20347  21270290.872    21270289.979    21270285.434
 134182097.21146 104557472.3084   25534001.836    25534000.084    25534000.318
 115973786.14748  90369188.56647  22069069.426    22069068.566    22069068.351
 107518098.15948  83780318.62847  20460005.941    20460004.896    20460002.126
 123902330.20847  96547283.79246  23577822.888    23577822.390    23577820.333
 15 12 21  2 23 30.0000000  0  8G27G26G29G23G21G09G16G31
 128795104.11946 100359819.26846  24508888.503    24508886.610    24508887.936
 108398053.02049  84466022.68148  20627457.562    20627457.032    20627458.068
 120290144.11147  93732586.48046  22890446.633    22890446.211    22890443.600
 111791582.83348  87110329.40547  21273224.840    21273223.968    21273219.382
 134103028.09646 104495860.10241  25518954.946    25518954.248    25518951.097
 115920770.86748  90327877.92547  22058981.098    22058980.357    22058979.946
 107480878.08248  83751316.20947  20452923.032    20452921.861    20452919.117
 124005144.71947  96627398.98246  23597388.694    23597387.879    23597384.997
 15 12 21  2 24  0.0000000  0  8G27G26G29G23G21G09G16G31
 128676040.48046 100267041.89446  24486231.248    24486229.920    24486233.043
 108425076.01648  84487079.99948  20632599.590    20632598.977    20632599.864
 120361602.05047  93788267.94246  22904043.736    22904043.106    22904041.265
 111807610.60148  87122818.54947  21276274.750    21276273.815    21276269.401
 134024142.12046 104434390.67441  25503943.100    25503943.036    25503941.122
 115868293.70547  90286986.60047  22048994.880    22048994.038    22048993.930
 107444217.38548  83722749.31547  20445946.646    20445945.593    20445943.060
 124108114.05347  96707634.93646  23616982.930    23616982.597    23616979.034
 15 12 21  2 24 30.0000000  0  8G27G26G29G23G21G09G16G31
 128557070.44646 100174338.20746  24463591.325    24463590.211    24463591.300
 108452617.08648  84508540.58248  20637840.406    20637839.791    20637840.384
 120433533.86047  93844318.54646  22917732.466    22917732.251    22917729.920
 111824246.26048  87135781.36047  21279440.453    21279439.641    21279435.071
 133945440.37246 104373064.78641  25488967.085    25488967.571    25488965.040
 115816355.54248  90246515.30747  22039111.471    22039110.882    22039110.462
 107408116.71748  83694618.79647  20439077.166    20439075.962    20439073.474
 124211235.77947  96787989.56046  23636605.575    23636604.534    23636602.453
 15 12 21  2 25  0.0000000  0  8G27G26G29G23G21G09G16G31
 128438196.61646 100081709.42846  24440969.846    24440970.408    24440968.755
 108480677.52249  84530405.77148  20643180.246    20643179.552    20643180.405
 120505939.61647  93900738.61746  22931511.111    22931510.683    22931507.682
 111841490.97248  87149218.74947  21282722.112    21282721.118    21282716.693
 133866926.60045 104311885.33141  25474027.208    25474025.463    25474024.168
 115764959.75048  90206466.60947  22029331.280    22029330.597    22029330.288
 107372578.26348  83666926.44247  20432314.490    20432313.233    20432310.788
 124314509.73947  96868462.90046  23656259.923    23656260.251    23656254.867
 15 12 21  2 25 30.0000000  0  8G27G26G29G23G21G09G16G31
 128319421.62446  99989157.64446  24418366.971    24418366.181    24418367.767
 108509256.27248  84552674.83348  20648618.539    20648617.944    20648618.878
 120578816.34747  93957525.63446  22945379.236    22945378.805    22945376.060
 111859344.66148  87163130.70047  21286119.665    21286118.652    21286114.319
 133788603.57946 104250854.46241  25459123.081    25459120.800    25459118.682
 115714108.35448  90166842.20247  22019654.236    22019653.710    22019653.417
 107337602.66148  83639672.75847  20425658.707    20425657.476    20425655.035
 124417934.55847  96949053.73846  23675938.544    23675937.800    23675936.181
 15 12 21  2 26  0.0000000  0  8G27G26G29G23G21G09G16G31
 128200748.77446  99896685.36246  24395785.925    24395785.633    24395786.338
 108538352.97548  84575347.61448  20654155.651    20654155.044    20654155.815
 120652162.20047  94014678.28946  22959336.462    22959335.898    22959333.194
 111877807.35748  87177517.10347  21289632.885    21289632.087    21289627.551
 133710473.85745 104189974.20741  25444253.684    25444253.154    25444251.961
 115663803.26348  90127643.36447  22010081.744    22010080.784    22010080.734
 107303191.21548  83612858.97847  20419110.238    20419109.153    20419106.588
 124521509.08347  97029761.06546  23695649.921    23695649.045    23695645.679
 15 12 21  2 26 30.0000000  0  8G27G26G29G23G21G09G16G31
 128082179.36046  99804293.82146  24373221.638    24373219.806    24373223.279
 108567964.78248  84598421.79848  20659790.533    20659789.777    20659790.584
 120725973.21547  94072193.48346  22973382.167    22973382.215    22973379.186
 111896877.30848  87192376.68547  21293262.029    21293261.123    21293256.639
 133632537.99846 104129244.90541  25429424.215    25429421.445    25429418.894
 115614044.96748  90088870.59647  22000612.881    22000612.444    22000612.190
 107269342.27348  83586483.52947  20412668.711    20412667.481    20412664.873
 124625230.41947  97110582.85446  23715386.418    23715386.078    23715383.200
 15 12 21  2 27  0.0000000  0  9G27G26G29G23G21G09G07G16G31
 127963716.85846  99711985.32046  24350678.120    24350676.577    24350678.636
 108598092.43749  84621898.09548  20665523.319    20665522.724    20665523.518
 120800247.90447  94130069.92146  22987515.945    22987515.966    22987513.199
 111916555.78548  87207710.67147  21297006.461    21297005.743    21297001.264
 133554800.56646 104068670.18841  25414631.165    25414629.546    25414625.720
 115564836.90248  90050526.56547  21991249.207    21991248.481    21991248.252
 133140092.19046 103745527.00645  25335716.611    25335716.039    25335713.726
 107236057.64848  83560547.46047  20406334.845    20406333.640    20406330.975
 124729098.84747  97191519.22546  23735153.025    23735152.164    23735148.344
 15 12 21  2 27 30.0000000  0 10G27G26G29G05G23G21G09G07G16G31
 127845364.34546  99619762.44246  24328157.471    24328156.616    24328155.471
 108628734.42449  84645775.13748  20671354.257    20671353.652    20671354.351
 120874984.15847  94188305.84046  23001737.730    23001737.433    23001734.390
 132368035.40946 103143928.92945  25188799.043    25188799.116    25188796.830
 111936842.07848  87223518.21947  21300866.933    21300866.087    21300861.360
 133477264.52646 104008252.47041  25399876.578    25399874.773    25399872.335
 115516180.96148  90012612.79347  21981990.272    21981989.527    21981989.192
 133030153.50046 103659860.50245  25314796.202    25314795.141    25314793.236
 107203338.69848  83535052.19547  20400108.530    20400107.438    20400104.797
 124833112.61447  97272568.88846  23754945.971    23754945.680    23754941.888
 15 12 21  2 28  0.0000000  0 10G27G26G29G05G23G21G09G07G16G31
 127727123.78446  99527627.20646  24305657.141    24305656.161    24305656.611
 108659887.88148  84670050.66548  20677282.501    20677281.843    20677282.582
 120950178.26347  94246898.65246  23016046.722    23016045.820    23016044.210
 132292917.20146 103085395.11945  25174504.186    25174503.670    25174500.986
 111957733.96949  87239797.66447  21304842.521    21304841.607    21304836.989
 133399930.37046 103947992.20041  25385159.956    25385158.429    25385157.179
 115468077.15248  89975129.24347  21972836.253    21972835.623    21972835.743
 132920229.41046 103574205.34044  25293878.657    25293877.944    25293875.494
 107171184.31548  83509996.93047  20393989.779    20393988.566    20393986.053
 124937268.66547  97353729.42446  23774765.481    23774764.741    23774762.100
 15 12 21  2 28 30.0000000  0 10G27G26G29G05G23G21G09G07G16G31
 127608996.50246  99435579.58846  24283178.355    24283177.023    24283179.756
 108691552.47248  84694724.44648  20683307.883    20683307.365    20683307.942
 121025827.49847  94305846.09346  23030442.168    23030441.852    23030439.452
 132218204.00946 103027176.96345  25160287.715    25160287.807    25160284.856
 111979231.68448  87256549.18547  21308933.347    21308932.470    21308927.685
 133322800.82445 103887891.28941  25370483.550    25370481.011    25370480.373
 115420527.94448  89938077.81847  21963788.228    21963787.432    21963787.443
 132810322.48146 103488563.56044  25272964.522    25272964.053    25272960.833
 107139595.31148  83485382.08047  20387978.624    20387977.386    20387974.804
 125041566.32747  97435000.29646  23794613.602    23794614.090    23794610.050
 15 12 21  2 29  0.0000000  0 10G27G26G29G05G23G21G09G07G16G31
 127490986.52046  99343623.53046  24260722.549    24260721.410    24260722.887
 108723726.67049  84719795.23148  20689430.656    20689429.902    20689430.705
 121101930.67547  94365147.36546  23044924.114    23044923.228    23044922.064
 132143897.71946 102969276.17345  25146148.097    25146146.379    25146143.898
 112001334.45848  87273772.12247  21313139.217    21313138.396    21313133.842
 133245877.32746 103827950.92942  25355845.291    25355843.181    25355841.213
 115373534.93748  89901459.78047  21954845.761    21954845.180    21954844.876
 132700433.89246 103402936.15345  25252053.140    25252051.257    25252048.348
 107108571.99548  83461208.06547  20382075.170    20382074.025    20382071.240
 125146004.09447  97516380.36146  23814486.300    23814485.491    23814482.823
 15 12 21  2 29 30.0000000  0 10G27G26G29G05G23G21G09G07G16G31
 127373096.24746  99251760.74046  24238289.734    24238288.195    24238287.704
 108756409.43648  84745262.32848  20695649.778    20695649.213    20695649.925
 121178483.90947  94424799.21246  23059492.587    23059492.282    23059489.310
 132070000.10046 102911693.73545  25132084.706    25132084.600    25132082.836
 112024041.95248  87291466.28347  21317460.539    21317459.599    21317454.949
 133169163.39145 103768173.78542  25341247.425    25341245.391    25341243.554
 115327099.87648  89865276.55447  21946009.389    21946008.632    21946008.802
 132590564.61946 103317323.69845  25231144.679    25231144.482    25231142.275
 107078115.06448  83437475.37047  20376279.506    20376278.211    20376275.463
 125250580.18347  97597868.14346  23834386.939    23834385.791    23834382.484
 15 12 21  2 30  0.0000000  0 10G27G26G29G05G23G21G09G07G16G31
 127255328.28146  99159993.38746  24215879.504    24215877.480    24215876.361
 108789599.29148  84771124.51048  20701965.659    20701965.025    20701965.749
 121255485.48347  94484800.51246  23074143.895    23074143.649    23074140.760
 131996513.98246 102854431.82345  25118100.885    25118100.758    25118097.746
 112047353.61948  87309631.23047  21321896.520    21321895.861    21321891.237
 133092661.03546 103708561.51542  25326689.082    25326686.705    25326684.991
 115281224.22048  89829529.21347  21937279.721    21937279.010    21937278.985
 132480716.33846 103231727.63345  25210242.277    25210241.479    25210238.496
 107048224.88148  83414184.32147  20370591.447    20370590.154    20370587.528
 125355292.97547  97679462.48646  23854313.459    23854313.199    23854307.747
 15 12 21  2 30 30.0000000  0 10G27G26G29G05G23G21G09G07G16G31
 127137685.70546  99068323.86346  24193492.641    24193492.318    24193490.728
 108823295.96248  84797381.67848  20708377.826    20708377.379    20708378.053
 121332933.11247  94545149.37146  23088882.459    23088882.272    23088879.372
 131923442.91846 102797493.29545  25104196.516    25104195.940    25104192.647
 112071269.10248  87328266.68747  21326447.336    21326446.443    21326441.982
 133016373.26145 103649116.55142  25312171.045    25312169.791    25312167.516
 115235910.38148  89794219.64447  21928656.785    21928655.995    21928656.006
 132370891.11146 103146149.53645  25189343.505    25189342.690    25189340.469
 107018902.59848  83391335.79447  20365011.628    20365010.472    20365007.685
 125460142.00447  97761163.06246  23874264.721    23874263.602    23874260.099
 15 12 21  2 31  0.0000000  0 10G27G26G29G05G23G21G09G07G16G31
 127020170.56546  98976753.06846  24171130.579    24171129.143    24171129.028
 108857497.88048  84824032.57548  20714886.336    20714885.723    20714886.419
 121410824.19447  94605843.80246  23103705.030    23103704.016    23103702.594
 131850788.62946 102740879.50545  25090370.531    25090370.016    25090367.798
 112095787.47548  87347371.96347  21331113.044    21331112.269    21331107.471
 132940302.26945 103589840.51142  25297695.146    25297693.927    25297692.208
 115191159.87148  89759349.07447  21920140.988    21920140.354    21920140.578
 132261090.10546 103060590.31345  25168448.445    25168448.447    25168446.366
 106990147.94248  83368929.49947  20359539.931    20359538.874    20359536.078
 125565125.07147  97842967.97346  23894243.588    23894242.287    23894239.736
 15 12 21  2 31 30.0000000  0 10G27G26G29G05G23G21G09G07G16G31
 126902786.62846  98885285.00646  24148792.735    24148791.912    24148792.670
 108892203.82549  84851076.19048  20721490.758    20721489.951    20721490.651
 121489155.58547  94666881.21946  23118610.320    23118609.715    23118608.772
 131778553.93646 102684592.68545  25076624.532    25076624.510    25076621.569
 112120908.46048  87366946.77947  21335893.272    21335892.488    21335888.034
 132864450.57646 103530735.50842  25283261.473    25283259.318    25283258.550
 115146974.40548  89724918.81247  21911733.142    21911732.274    21911732.215
 132151314.61046 102975050.96545  25147559.887    25147559.804    25147557.473
 106961961.95348  83346966.39647  20354176.364    20354175.180    20354172.347
 125670241.02547  97924876.48146  23914246.412    23914246.258    23914243.407
 15 12 21  2 32  0.0000000  0 10G27G26G29G05G23G21G09G07G16G31
 126785534.86646  98793919.04846  24126480.933    24126481.165    24126483.000
 108927412.97948  84878511.89848  20728190.619    20728190.003    20728190.700
 121567925.37647  94728260.23546  23133599.940    23133599.906    23133597.482
 131706741.47546 102628634.87445  25062959.067    25062958.770    25062956.936
 112146631.76648  87386990.88746  21340788.287    21340787.509    21340782.715
 132788820.86146 103471803.39242  25268869.572    25268868.675    25268866.400
 115103355.93348  89690930.30247  21903432.663    21903431.865    21903431.926
 132041566.51246 102889532.90145  25126674.426    25126674.823    25126671.847
 106934345.16648  83325446.76847  20348921.161    20348919.719    20348917.058
 125775488.59547  98006887.45746  23934274.839    23934274.467    23934272.133
 15 12 21  2 32 30.0000000  0 10G27G26G29G05G23G21G09G07G16G31
 126668419.34446  98702659.77246  24104194.524    24104193.754    24104197.174
 108963122.97349  84906337.86248  20734986.141    20734985.510    20734986.138
 121647130.42847  94789978.43946  23148672.523    23148671.958    23148668.286
 131635353.23446 102573007.67045  25049374.792    25049374.553    25049371.952
 112172955.56549  87407502.91847  21345797.766    21345796.756    21345792.324
 132713414.22946 103413045.10442  25254520.182    25254518.156    25254516.575
 115060305.08348  89657384.12447  21895240.677    21895239.872    21895239.958
 131931846.39847 102804036.72645  25105795.685    25105795.622    25105792.447
 106907297.10848  83304370.40347  20343773.768    20343772.544    20343770.029
 125880865.37547  98088999.09746  23954327.584    23954327.916    23954325.799
 15 12 21  2 33  0.0000000  0 10G27G26G29G05G23G21G09G07G16G31
 126551442.83846  98611508.85746  24081935.362    24081934.080    24081937.876
 108999333.29949  84934553.70448  20741876.532    20741876.067    20741876.718
 121726768.94547  94852034.37346  23163826.803    23163826.680    23163824.743
 131564391.92446 102517712.80345  25035870.705    25035870.053    25035867.400
 112199880.25848  87428483.22047  21350921.373    21350920.419    21350915.900
 132638233.22746 103354462.52342  25240213.247    25240212.430    25240209.627
 115017824.44348  89624282.35947  21887156.891    21887156.215    21887155.731
 131822156.44947 102718564.05145  25084922.683    25084921.300    25084918.358
 106880818.83848  83283738.06747  20338735.286    20338733.919    20338731.222
 125986370.56547  98171210.69246  23974403.684    23974403.062    23974401.983
 15 12 21  2 33 30.0000000  0 10G27G26G29G05G23G21G09G07G16G31
 126434607.91646  98520468.53546  24059702.851    24059702.534    24059704.806
 109036042.60448  84963158.33248  20748862.196    20748861.660    20748862.333
 121806837.97547  94914425.84246  23179063.782    23179063.646    23179060.043
 131493860.09146 102462752.65945  25022449.492    25022449.907    25022446.819
 112227404.82949  87449930.96647  21356158.985    21356158.012    21356153.488
 132563280.94546 103296057.97342  25225951.055    25225950.210    25225946.543
 114975915.27448  89591625.95047  21879181.518    21879180.923    21879180.652
 131712498.02047 102633115.95245  25064055.357    25064055.125    25064052.883
 106854910.20548  83263549.43647  20333804.988    20333803.627    20333801.057
 126092002.23346  98253520.57646  23994502.840    23994502.955    23994500.896
 15 12 21  2 34  0.0000000  0 10G27G26G29G05G23G21G09G07G16G31
 126317915.28746  98429537.90646  24037498.860    24037498.602    24037502.474
 109073249.85448  84992150.96948  20755942.517    20755941.934    20755942.536
 121887334.81747  94977150.47446  23194381.452    23194380.690    23194380.028
 131423761.20546 102408130.24945  25009110.122    25009110.041    25009107.127
 112255528.35548  87471845.41347  21361510.864    21361509.909    21361505.489
 132488560.20746 103237833.94842  25211732.350    25211730.997    25211728.532
 114934579.28548  89559416.10747  21871315.298    21871314.663    21871314.752
 131602872.71947 102547693.61645  25043194.842    25043194.449    25043191.581
 106829572.39048  83243805.78747  20328983.498    20328982.177    20328979.394
 126197760.73846  98335929.83946  24014628.734    24014627.693    24014623.638
 15 12 21  2 34 30.0000000  0 10G27G26G29G05G23G21G09G07G16G31
 126201371.92947                  24015320.774
 109110953.20348  85021530.18948  20763117.238    20763116.640    20763117.272
 121968256.33547  95040205.96846  23209781.177    23209780.933    23209779.151
 131354096.01746 102353845.75845  24995853.187    24995853.246    24995851.256
 112284249.84848  87494225.78947  21366976.193    21366975.420    21366970.759
 132414072.56946 103179791.60042  25197557.384    25197556.194    25197553.894
 114893817.55648  89527653.72647  21863558.981    21863558.137    21863558.016
 131493281.20046 102462297.61445  25022339.995    25022339.154    25022337.283
 106804804.61048  83224506.18247  20324270.191    20324268.970    20324266.194
 126303642.66246  98418435.11446  24034777.730    24034776.074    24034774.041
 15 12 21  2 35  0.0000000  0 10G27G26G29G05G23G21G09G07G16G31
 126084978.55046  98248029.28146  23993171.194    23993170.299    23993174.599
 109149152.14749  85051295.59748  20770386.199    20770385.628    20770386.295
 122049602.31447  95103592.48646  23225259.795    23225259.458    23225258.510
 131284867.76946 102299901.56745  24982679.491    24982679.332    24982677.782
 112313568.99648  87517071.84846  21372555.355    21372554.614    21372550.184
 132339820.45246 103121932.72142  25183427.862    25183426.207    25183425.160
 114853632.48048  89496340.72647  21855911.790    21855911.148    21855911.241
 131383725.91646 102376929.81545  25001491.450    25001489.639    25001489.605
 106780608.01048  83205651.68047  20319665.780    20319664.450    20319661.837
 126409647.45347  98501036.05546  24054950.462    24054949.801    24054948.411
 15 12 21  2 35 30.0000000  0 10G27G26G29G05G23G21G09G07G16G31
 125968737.58646  98157452.53646  23971050.257    23971050.500    23971052.714
 109187844.63749  85081445.59648  20777749.273    20777748.717    20777749.282
 122131368.26247  95167306.28246  23240819.928    23240819.515    23240817.823
 131216078.71146 102246299.63746  24969589.801    24969588.458    24969586.936
 112343485.15948  87540383.19947  21378248.226    21378247.303    21378242.919
 132265806.56646 103064259.35842  25169343.492    25169342.711    25169339.811
 114814024.81848  89465477.64447  21848374.643    21848374.165    21848374.025
 131274207.93746 102291591.14545  24980651.373    24980650.183    24980647.559
 106756982.37048  83187242.10647  20315170.017    20315168.725    20315165.951
 126515773.02746  98583731.11046  24075145.334    24075144.149    24075143.702
 15 12 21  2 36  0.0000000  0 10G27G26G29G05G23G21G09G07G16G31
 125852650.48546  98066995.78246  23948959.652    23948959.276    23948961.538
 109227030.74548  85111980.20348  20785206.195    20785205.527    20785206.160
 122213552.54647  95231345.87946  23256458.568    23256458.458    23256455.264
 131147732.01845 102193042.53346  24956582.311    24956582.640    24956582.017
 112373998.13848  87564159.55447  21384054.614    21384053.790    21384049.324
 132192034.63246 103006774.84142  25155305.264    25155304.211    25155301.841
 114774997.64948  89435066.96347  21840947.871    21840947.290    21840947.172
 131164729.78546 102206283.49245  24959817.860    24959817.388    24959815.426
 106733928.95648  83169278.37847  20310782.949    20310781.830    20310779.078
 126622019.32147  98666520.22046  24095365.775    24095366.031    24095362.577
 15 12 21  2 36 30.0000000  0 10G27G26G29G05G23G21G09G07G16G31
 125736722.45346  97976661.90446  23926899.006    23926898.050    23926898.819
 109266707.09448  85142896.83348  20792756.139    20792755.464    20792756.241
 122296151.33947  95295708.58646  23272178.157    23272178.033    23272173.383
 131079828.62246 102140130.93046  24943662.819    24943662.918    24943659.604
 112405104.74248  87588398.46846  21389974.056    21389973.208    21389968.602
 132118504.38346 102949478.55842  25141313.094    25141311.862    25141308.671
 114736550.12948  89405107.89947  21833631.569    21833630.883    21833630.827
 131055291.49446 102121006.91545  24938992.019    24938991.694    24938988.999
 106711446.39748  83151759.51647  20306504.665    20306503.441    20306500.722
 126728382.98847  98749400.80546  24115604.179    24115602.985    24115601.584
 15 12 21  2 37  0.0000000  0 10G27G26G29G05G23G21G09G07G16G31
 125620954.00046  97886452.93246  23904868.990    23904867.969    23904869.484
 109306873.74248  85174195.52448  20800399.911    20800398.969    20800399.842
 122379163.04847  95360393.08846  23287972.998    23287972.536    23287971.960
 131012372.31046 102087567.74046  24930825.639    24930824.835    24930821.653
 112436806.17448  87613100.86946  21396006.878    21396006.002    21396001.088
 132045219.10646 102892372.89542  25127367.884    25127366.903    25127363.864
 114698685.29148  89375602.88747  21826426.162    21826425.466    21826425.428
 130945895.44946 102035763.30345  24918174.608    24918174.113    24918171.040
 106689536.54448  83134686.88147  20302335.468    20302334.154    20302331.499
 126834863.93747  98832372.73446  24135868.650    24135868.951    24135864.878
 15 12 21  2 37 30.0000000  0 10G27G26G29G05G23G21G09G07G16G31
 125505349.86247                  23882870.467
 109347528.73548  85205874.75248  20808136.059    20808135.352    20808136.108
 122462584.44347  95425396.75946  23303847.984    23303847.463    23303846.670
 130945364.69045 102035354.16445  24918072.440    24918072.922    24918072.435
 112469100.72948  87638265.44046  21402152.129    21402151.373    21402146.746
 131972181.24046 102835460.05442  25113469.486    25113467.590    25113465.036
 114661403.87748  89346552.47048  21819331.935    21819331.345    21819331.075
 130836542.47646 101950553.26845  24897365.579    24897365.469    24897362.735
 106668199.07748  83118060.40047  20298274.887    20298273.642    20298271.061
 126941460.25347  98915434.73946  24156152.358    24156151.040    24156151.160
 15 12 21  2 38  0.0000000  0 10G27G26G29G05G23G21G09G07G16G31
 125389907.66147                  23860903.647
 109388672.62948  85237934.92348  20815965.508    20815964.737    20815965.551
 122546415.01047  95490719.23546  23319799.836    23319798.933    23319798.548
 130878809.34545 101983492.97746  24905409.439    24905408.834    24905407.548
 112501989.59148  87663893.11246  21408410.630    21408409.813    21408405.257
 131899395.14646 102778743.41642  25099618.143    25099615.976    25099613.202
 114624709.29648  89317959.29548  21812349.079    21812348.126    21812348.413
 130727236.04046 101865379.40745  24876565.768    24876564.863    24876563.395
 106647435.45348  83101880.97347  20294323.738    20294322.467    20294319.813
 127048172.11647  98998586.74046  24176460.709    24176460.061    24176457.670
 15 12 21  2 38 30.0000000  0 10G27G26G29G05G23G21G09G07G16G31
 125274639.19546                  23838966.190
 109430300.44648  85270372.07948  20823887.077    20823886.501    20823886.982
 122630648.49747  95556355.73146  23335830.645    23335830.794    23335827.256
 130812705.97446 101931983.87646  24892830.664    24892829.974    24892827.480
 112535468.07048  87689980.23646  21414781.418    21414780.564    21414775.954
 131826860.45946 102722222.98442  25085816.080    25085814.399    25085812.634
 114588599.69448  89289821.99847  21805477.592    21805476.923    21805476.787
 130617974.13947 101780240.16445  24855774.120    24855773.454    24855770.992
 106627242.53448  83086146.24147  20290480.994    20290479.882    20290477.269
 127154994.09847  99081824.27346  24196786.500    24196786.698    24196784.817
 15 12 21  2 39  0.0000000  0 10G27G26G29G05G23G21G09G07G16G31
 125159540.16546                  23817064.035
 109472413.72449  85303187.52748  20831901.118    20831900.518    20831901.101
 122715284.97947  95622306.15846  23351934.636    23351933.893    23351932.115
 130747059.23845 101880830.56546  24880335.805    24880334.239    24880335.006
 112569538.00648  87716528.20246  21421264.718    21421263.646    21421259.280
 131754581.02246 102665901.61942  25072061.333    25072059.665    25072056.594
 114553079.00648  89262143.57848  21798718.132    21798717.576    21798717.181
 130508760.97046 101695138.82245  24834991.523    24834990.523    24834988.025
 106607623.51548  83070858.68147  20286747.625    20286746.590    20286743.912
 127261927.98347  99165148.90146  24217136.409    24217135.727    24217134.051
 15 12 21  2 39 30.0000000  0 10G27G26G29G05G23G21G09G07G16G31
 125044615.39647  97437346.06746  23795194.749    23795193.659    23795193.647
 109515010.09748  85336379.44048  20840006.882    20840006.294    20840007.081
 122800320.70547  95688567.68546  23368116.846    23368116.150    23368112.198
 130681871.15946 101830034.66345  24867933.398    24867933.510    24867930.659
 112604197.74348  87743535.78946  21427860.607    21427859.618    21427854.796
 131682558.61046 102609780.39842  25058353.335    25058352.804    25058352.784
 114518147.64048  89234924.34148  21792070.953    21792070.439    21792070.101
 130399597.46746 101610076.24945  24814218.234    24814216.950    24814215.464
 106588576.83848  83056016.92247  20283123.568    20283122.078    20283119.553
 127368971.31046  99248558.77246  24237505.074    24237504.215    24237501.644
 15 12 21  2 40  0.0000000  0 10G27G26G29G05G23G21G09G07G16G31
 124929867.01947  97347932.02146  23773358.219    23773356.927    23773357.040
 109558089.15948  85369947.62348  20848204.604    20848203.866    20848204.771
 122885753.69247  95755138.51546  23384376.341    23384376.055    23384371.024
 130617144.16946 101779597.97346  24855616.336    24855615.806    24855614.159
 112639446.64048  87771002.48046  21434567.906    21434567.142    21434562.404
 131610796.08546 102553861.75642  25044700.804    25044698.868    25044694.517
 114483807.71148  89208165.97348  21785536.243    21785535.482    21785535.323
 130290486.31346 101525054.53245  24793454.870    24793454.012    24793451.742
 106570103.98048  83041622.33647  20279608.302    20279607.073    20279604.517
 127476118.94646  99332047.59346  24257897.081    24257896.457    24257896.447
 15 12 21  2 40 30.0000000  0 10G27G26G29G05G23G21G09G07G16G31
 124815294.03946                  23751555.604
 109601647.04648  85403888.82548  20856493.521    20856492.888    20856493.501
 122971579.32247  95822015.15146  23400706.691    23400706.578    23400705.138
 130552878.47045 101729520.94746  24843386.747    24843386.613    24843383.118
 112675281.80348  87798925.98346  21441387.191    21441386.256    21441381.725
 131539293.54146 102498145.57442  25031093.184    25031091.607    25031089.692
 114450058.61448  89181867.98648  21779113.980    21779113.402    21779113.216
 130181426.30346 101440072.63345  24772701.290    24772701.029    24772699.843
 106552203.68948  83027674.19847  20276201.841    20276200.563    20276197.964
 127583381.06047                  24278307.695
 15 12 21  2 41  0.0000000  0 10G27G26G29G05G23G21G09G07G16G31
 124700904.98147                  23729789.243
 109645683.81748  85438203.09048  20864873.403    20864872.868    20864873.449
 123057797.41347  95889198.05146  23417115.613    23417115.260    23417111.016
 130489078.16446 101679806.25446  24831246.842    24831246.001    24831241.410
 112711703.26148  87827306.16946  21448318.017    21448317.210    21448312.541
 131468054.98645 102442634.99942  25017533.995    25017534.529    25017531.696
 114416903.18748  89156032.66047  21772804.754    21772804.119    21772803.728
 130072420.63846 101355133.07645  24751958.509    24751957.703    24751955.866
 106534876.36648  83014172.36347  20272904.618    20272903.436    20272900.699
 127690745.55247                  24298737.626
 15 12 21  2 41 30.0000000  0 10G27G26G29G05G23G21G09G07G16G31
 124586700.58346                  23708057.471
 109690198.41349  85472889.72548  20873344.283    20873343.601    20873344.339
 123144405.48447  95956685.18046  23433594.480    23433594.008    23433592.144
 130425745.58546 101630456.26045  24819193.371    24819193.206    24819192.278
 112748710.43148  87856142.80046  21455360.153    21455359.502    21455355.009
 131397082.07746 102387331.20942  25004031.627    25004030.196    25004026.949
 114384342.77948  89130660.96248  21766608.537    21766608.022    21766607.854
 129963471.38446 101270237.56645  24731226.757    24731226.406    24731224.442
 106518122.76648  83001117.59847  20269716.471    20269715.314    20269712.538
 127798211.87847                  24319188.917
 15 12 21  2 42  0.0000000  0 10G27G26G29G05G23G21G09G07G16G31
 124472683.46446                  23686358.909
 109735189.03948  85507947.34748  20881905.681    20881905.132    20881905.830
 123231399.49547  96024472.83346  23450149.432    23450149.313    23450146.116
 130362882.28647 101581471.94446  24807231.870    24807231.987    24807228.874
 112786302.02848  87885434.94746  21462513.910    21462512.754    21462508.372
 131326377.85346 102332236.80942  24990576.912    24990574.750    24990570.960
 114352378.18148  89105753.47748  21760526.034    21760525.238    21760525.217
 129854579.69146 101185387.01345  24710505.023    24710504.615    24710501.349
 106501942.14848  82988509.06847  20266637.661    20266636.449    20266633.914
 127905784.46747                  24339659.268
 15 12 21  2 42 30.0000000  0 10G27G26G29G05G23G21G09G07G16G31
 124358857.42047  96902991.43046  23664700.240    23664700.316    23664701.784
 109780654.29748  85543374.54748  20890557.603    20890556.980    20890557.908
 123318777.23447  96092559.32146  23466776.321    23466774.605    23466774.292
 130300491.46446 101532855.52145  24795359.112    24795358.418    24795355.406
 112824477.31648  87915181.79046  21469778.378    21469777.568    21469772.925
 131255945.53046 102277354.39842  24977173.854    24977171.812    24977170.658
 114321011.45548  89081311.92048  21754557.031    21754556.309    21754556.336
 129745747.55546 101100582.84645  24689794.822    24689793.429    24689790.621
 106486336.14348  82976348.54447  20263668.024    20263666.762    20263664.100
 128013455.97847                  24360149.239
 15 12 21  2 43  0.0000000  0 10G27G26G29G05G23G21G09G07G16G31
 124245227.78047  96814451.42146  23643075.470    23643074.438    23643075.863
 109826591.32848  85579169.55148  20899299.388    20899298.638    20899299.425
 123406534.29047  96160941.32946  23483476.416    23483475.963    23483474.936
 130238572.95346 101484607.37045  24783575.002    24783575.268    24783574.320
 112863232.94648  87945380.84346  21477153.353    21477152.435    21477148.174
 131185784.38646 102222683.48342  24963822.846    24963820.814    24963818.904
 114290241.53048  89057335.38447  21748701.703    21748700.886    21748700.705
 129636974.06546 101015824.44045  24669094.944    24669094.393    24669092.518
 106471302.11748  82964633.83747  20260807.009    20260805.704    20260803.059
 128121226.87847  99834708.61845  24380656.097    24380656.114    24380654.345
 15 12 21  2 43 30.0000000  0 10G27G26G29G05G23G21G09G07G16G31
 124131791.66647  96726060.28346  23621488.065    23621486.606    23621489.115
 109873002.02448  85615333.71448  20908130.989    20908130.354    20908131.092
 123494671.75547  96229619.89446  23500248.180    23500247.568    23500246.647
 130177132.87047 101436732.06845  24771884.766    24771883.978    24771882.065
 112902572.20348  87976035.02846  21484639.441    21484638.460    21484633.999
 131115900.53946 102168228.71542  24950523.773    24950522.379    24950519.805
 114260073.36548  89033827.81148  21742961.007    21742960.204    21742959.840
 129528264.47146 100931115.74345  24648409.067    24648408.379    24648406.134
 106456843.02048  82953366.88647  20258055.586    20258054.353    20258051.785
 128229096.61946  99918763.17045  24401181.024    24401180.638    24401180.727
 15 12 21  2 44  0.0000000  0 10G27G26G29G05G23G21G09G07G16G31
 124018553.83946  96637823.05646  23599939.822    23599939.449    23599939.782
 109919884.16548  85651865.29048  20917052.239    20917051.724    20917052.407
 123583185.84147  96298591.92946  23517092.398    23517091.724    23517089.631
 130116172.17946 101389230.12845  24760283.868    24760282.780    24760277.528
 112942491.94748  88007141.36346  21492235.878    21492235.085    21492230.410
 131046295.84746 102113991.48142  24937277.995    24937276.063    24937275.596
 114230507.11348  89010789.19247  21737334.648    21737333.744    21737333.517
 129419619.60746 100846457.36645  24627735.074    24627734.028    24627730.353
 106442958.63448  82942547.75647  20255413.540    20255412.306    20255409.813
 128337059.44046 100002888.17546  24421727.506    24421718.702    24421688.250
 15 12 21  2 44 30.0000000  0 10G27G26G29G05G23G21G09G07G16G31
 123905515.70847  96549741.63046  23578429.230    23578427.866    23578428.844
 109967233.05548  85688760.34648  20926062.640    20926061.999    20926062.831
 123672071.27246  96367853.28146  23534006.269    23534005.638    23534002.527
 130055690.45847 101342101.48644  24748775.334    24748775.137    24748772.699
 112982988.49148  88038697.14246  21499942.090    21499941.129    21499936.682
 130976968.99446 102059970.68143  24924085.937    24924084.466    24924081.726
 114201541.42548  88988218.53548  21731822.465    21731821.853    21731821.452
 129311038.53446 100761848.75945  24607072.140    24607072.154    24607067.609
 106429646.08548  82932174.22447  20252880.316    20252879.176    20252876.577
 128445121.64947                  24442293.456
 15 12 21  2 45  0.0000000  0 10G27G26G29G05G23G21G09G07G16G31
 123792680.59847  96461818.27546  23556957.773    23556957.151    23556956.378
 110015048.68849  85726019.09248  20935161.680    20935161.106    20935161.959
 123761326.23947  96437402.48546  23550991.356    23550991.175    23550988.182
 129995691.39546 101295348.97245  24737357.831    24737357.091    24737354.933
 113024061.79748  88070702.24946  21507757.975    21507756.997    21507752.427
 130907923.30746 102006168.90343  24910947.474    24910946.042    24910943.276
 114173178.62348  88966117.70648  21726425.236    21726424.481    21726424.370
 129202523.75246 100677291.69745  24586422.262    24586421.432    24586417.832
 106416906.34748  82922247.04447  20250456.171    20250454.879    20250452.396
 128553278.06446                  24462872.365
 15 12 21  2 45 30.0000000  0 10G27G26G29G05G23G21G09G07G16G31
 123680052.54147  96374056.13146  23535524.676    23535524.249    23535523.114
 110063331.50748  85763642.08548  20944349.672    20944349.132    20944349.809
 123850950.11447  96507239.26946  23568045.844    23568045.074    23568044.295
 129936178.15646 101248974.87545  24726032.549    24726031.475    24726028.284
 113065712.31948  88103157.23746  21515683.746    21515683.077    21515678.537
 130839162.91646 101952589.25543  24897862.207    24897860.226    24897859.559
 114145421.26948  88944488.64048  21721142.962    21721142.485    21721142.107
 129094078.49446 100592788.92245  24565785.443    24565785.494    24565783.106
 106404741.78448  82912768.35047  20248141.132    20248139.996    20248137.456
 128661527.26346                  24483469.574
 15 12 21  2 46  0.0000000  0 10G27G26G29G05G23G21G09G07G16G31
 123567634.77047  96286457.95046  23514132.080    23514132.045    23514131.550
 110112079.15048  85801627.12348  20953626.091    20953625.680    20953626.338
 123940939.82747  96577361.01446  23585170.248    23585169.744    23585169.081
 129877152.95647 101202981.11645  24714800.356    24714800.138    24714798.671
 113107938.74048  88136060.93746  21523719.256    21523718.443    21523714.011
 130770690.66646 101899234.33543  24884832.482    24884831.032    24884829.417
 114118270.30248  88923332.07047  21715976.464    21715975.829    21715975.398
 128985704.16346 100508341.35445  24545162.665    24545162.310    24545159.312
 106393150.60248  82903736.12947  20245935.620    20245934.371    20245931.785
 128769864.49147                  24504087.563
 15 12 21  2 46 30.0000000  0 10G27G26G29G05G23G21G09G07G16G31
 123455427.51347  96199023.77046  23492780.024    23492779.105    23492780.963
 110161288.76948  85839972.30348  20962990.640    20962989.791    20962990.798
 124031290.65547  96647764.18746  23602364.497    23602363.871    23602361.991
 129818615.98547 101157367.92645  24703661.344    24703661.244    24703657.846
 113150737.72648  88169410.82046  21531863.592    21531862.881    21531858.216
 130702506.37946 101846103.90643  24871857.950    24871856.329    24871853.297
 114091724.92348  88902647.41847  21710925.045    21710924.105    21710923.951
 128877400.31246 100423948.74345  24524553.473    24524552.998    24524549.824
 106382131.85548  82895150.16647  20243838.673    20243837.448    20243834.906
 128878293.42146 100424632.87946  24524720.189    24524719.221    24524719.186
 15 12 21  2 47  0.0000000  0 10G27G26G29G05G23G21G09G07G16G31
 123343434.61547  96111756.53946  23471468.631    23471467.523    23471468.918
 110210959.97848  85878677.39248  20972442.226    20972441.705    20972442.612
 124122001.04647  96718447.55146  23619625.731    23619625.538    23619622.864
 129760570.28946 101112137.43745  24692615.554    24692614.407    24692612.608
 113194108.92248  88203206.57646  21540116.955    21540116.060    21540111.429
 130634612.69946 101793199.64143  24858937.989    24858936.494    24858934.910
 114065787.22048  88882436.26248  21705989.008    21705988.333    21705988.041
 128769170.21146 100339613.66046  24503957.854    24503957.312    24503956.019
 106371686.39948  82887011.10847  20241850.639    20241849.612    20241846.958
 128986809.91747 100509191.80046  24545369.541    24545369.567    24545366.322
 15 12 21  2 47 30.0000000  0 10G27G26G29G05G23G21G09G07G16G31
 123231659.51447  96024659.17846  23450198.457    23450197.893    23450195.768
 110261091.09549  85917740.77448  20981981.647    20981981.069    20981981.897
 124213068.66847  96789409.40446  23636955.434    23636955.187    23636951.721
 129703018.26546 101067291.77445  24681663.234    24681662.797    24681662.048
 113238051.32448  88237447.46246  21548478.865    21548477.823    21548473.289
 130567012.61146 101740524.26143  24846073.806    24846072.579    24846070.204
 114040458.56848  88862699.68048  21701169.353    21701168.706    21701168.204
 128661015.57647 100255337.38646  24483377.461    24483376.546    24483374.285
 106361814.26348  82879318.74847  20239972.111    20239970.767    20239968.104
 129095412.14847 100593816.90546  24566037.881    24566037.625    24566032.778
 15 12 21  2 48  0.0000000  0 10G27G26G29G05G23G21G09G07G16G31
 123120104.14347  95937733.03846  23428970.247    23428969.310    23428968.807
 110311679.69548  85957160.42548  20991608.563    20991607.940    20991608.768
 124304490.15847  96860647.00846  23654351.133    23654351.973    23654348.392
 129645961.65546 101022832.04145  24670805.865    24670805.274    24670803.541
 113282563.00948  88272131.88646  21556949.222    21556948.350    21556943.718
 130499708.37046 101688079.58843  24833265.421    24833263.490    24833262.868
 114015739.50048  88843438.10848  21696465.626    21696464.858    21696464.370
 128552937.29047 100171120.64446  24462809.971    24462809.617    24462806.609
 106352514.36548  82872072.03947  20238202.319    20238201.029    20238198.427
 129204099.06546 100678507.97246  24586719.342    24586718.119    24586716.808
 15 12 21  2 48 30.0000000  0 10G27G26G29G05G23G21G09G07G16G31
 123008771.08847  95850979.70846  23407784.392    23407784.094    23407783.607
 110362725.56448  85996936.44048  21001322.168    21001321.563    21001322.377
 124396263.92747  96932159.12046  23671815.581    23671815.338    23671811.764
 129589402.67946 100978760.03545  24660041.937    24660042.495    24660042.237
 113327643.51748  88307259.53146  21565527.633    21565526.836    21565522.153
 130432702.06146 101635866.92943  24820514.864    24820514.404    24820511.352
 113991631.84048  88824652.96748  21691877.795    21691877.161    21691876.762
 128444937.60647 100086965.09746  24442259.223    24442258.414    24442255.576
 106343787.75148  82865272.03747  20236541.801    20236540.524    20236537.910
 129312869.99847 100763264.50446  24607417.329    24607417.740    24607414.803
 15 12 21  2 49  0.0000000  0 10G27G26G29G05G23G21G09G07G16G31
 122897663.94747  95764402.34546  23386641.784    23386641.582    23386641.603
 110414227.16648  86037067.57248  21011122.464    21011121.970    21011122.909
 124488386.69347  97003943.07746  23689346.340    23689345.421    23689342.004
 129533344.38546 100935078.09746  24649376.428    24649375.669    24649373.546
 113373291.52648  88342829.41546  21574214.220    21574213.518    21574208.705
 130365996.32546 101583888.50743  24807821.753    24807820.209    24807817.514
 113968136.63548  88806345.07348  21687406.705    21687405.941    21687405.556
 128337018.46647 100002872.29446  24421722.928    24421722.306    24421719.528
 106335634.12148  82858918.57647  20234990.260    20234988.956    20234986.350
 129421721.90946 100848084.18945  24628132.301    24628131.989    24628129.548
 15 12 21  2 49 30.0000000  0 10G27G26G29G05G23G21G09G07G16G31
 122786784.35747  95678002.96646  23365540.932    23365539.961    23365541.568
 110466180.52048  86077550.71948  21021009.012    21021008.382    21021009.281
 124580853.94747  97075995.54745  23706941.531    23706939.654    23706938.811
 129477786.10246 100891785.95046  24638803.468    24638804.027    24638802.362
 113419503.33148  88378838.52946  21583008.248    21583007.297    21583002.375
 130299591.11146 101532144.29843  24795184.267    24795183.317    24795180.464
 113945252.31648  88788513.12848  21683052.015    21683051.296    21683050.906
 128229179.53347  99918841.97545  24401201.239    24401200.620    24401198.719
 106328051.18148  82853009.80747  20233546.995    20233545.870    20233543.224
 129530655.65546 100932967.92845  24648861.568    24648860.555    24648860.013
 15 12 21  2 50  0.0000000  0 10G27G26G29G05G23G21G09G07G16G31
 122676135.91947  95591783.64446  23344485.804    23344484.953    23344484.799
 110518586.17349  86118386.22248  21030981.261    21030980.714    21030981.529
 124673664.82346  97148315.67745  23724603.743    23724604.245    23724600.614
 129422731.99746 100848886.62546  24628327.178    24628326.239    24628324.259
 113466277.55348  88415284.91746  21591909.763    21591908.902    21591904.471
 130233490.96846 101480637.80443  24782606.210    24782605.411    24782602.070
 113922982.39048  88771160.01048  21678814.279    21678813.418    21678813.248
 128121423.76847  99834876.42045  24380696.473    24380696.127    24380692.737
 106321040.59848  82847546.95347  20232213.208    20232212.010    20232209.297
 129639669.72546 101017914.59246  24669606.390    24669605.625    24669601.944
 15 12 21  2 50 30.0000000  0 10G27G26G29G05G23G21G09G07G16G31
 122565721.19247  95505746.28546  23323474.805    23323473.465    23323473.998
 110571442.79048  86159573.12848  21041039.783    21041039.159    21041040.005
 124766817.18147  97220902.03645  23742330.073    23742329.496    23742327.707
 129368183.92346 100806381.53046  24617947.075    24617945.897    24617944.479
 113513618.62348  88452174.88946  21600917.779    21600916.952    21600912.330
 130167697.74946 101429370.38343  24770087.343    24770085.750    24770083.524
 113901327.63048  88754286.21648  21674693.333    21674692.683    21674692.257
 128013753.48947  99750977.48645  24360207.018    24360206.354    24360204.501
 106314601.90848  82842529.52047  20230988.210    20230986.935    20230984.399
 129748760.98446 101102920.75445  24690365.324    24690364.141    24690361.585
 15 12 21  2 51  0.0000000  0 10G27G26G29G05G23G21G09G07G16G31
 122455542.52547  95419892.67846  23302508.139    23302507.080    23302507.166
 110624748.52849  86201110.00548  21051183.634    21051182.989    21051183.772
 124860307.75146  97293751.87845  23760120.315    23760119.878    23760117.341
 129314143.82046 100764272.24346  24607663.376    24607663.914    24607661.696
 113561518.85648  88489499.65146  21610032.946    21610032.152    21610027.499
 130102213.87346 101378344.12243  24757625.479    24757623.568    24757619.835
 113880288.77548  88737892.37948  21670689.854    21670689.020    21670688.412
 127906170.20847  99667146.34646  24339735.369    24339735.013    24339731.663
 106308735.51048  82837958.23747  20229871.830    20229870.559    20229868.057
 129857928.77146 101187986.41945  24711137.428    24711137.436    24711136.765
 15 12 21  2 51 30.0000000  0 10G27G26G29G05G23G21G09G07G16G31
 122345602.66047  95334225.09546  23281587.518    23281586.290    23281587.630
 110678501.75449  86242995.67948  21061412.576    21061411.925    21061412.816
 124954133.57246  97366862.98245  23777974.929    23777974.151    23777972.010
 129260613.60645 100722560.40546  24597475.564    24597474.959    24597476.245
 113609979.35448  88527261.11546  21619254.751    21619253.811    21619249.240
 130037040.59646 101327559.80443  24745222.277    24745220.290    24745219.515
 113859866.17148  88721978.62948  21666803.346    21666802.777    21666802.424
 127798675.36147  99583384.18846  24319278.989    24319279.395    24319276.544
 106303440.37548  82833832.12847  20228864.237    20228863.113    20228860.410
 129967172.02046 101273111.03145  24731927.481    24731926.847    24731923.926
 15 12 21  2 52  0.0000000  0 10G27G26G29G05G23G21G09G07G16G31
 122235905.15347  95248746.41147  23260713.292    23260712.450    23260712.611
 110732701.24748  86285229.10348  21071726.300    21071725.764    21071726.485
 125048292.37747  97440233.55746  23795892.680    23795892.329    23795890.340
 129207595.73746 100681247.68246  24587389.179    24587387.438    24587386.724
 113658997.94948  88565457.00246  21628582.959    21628582.081    21628577.547
 129972180.80046 101277019.77843  24732880.088    24732879.524    24732876.204
 113840061.61248  88706546.53648  21663034.718    21663033.954    21663033.661
 127691270.72647  99499692.27246  24298841.255    24298839.864    24298838.178
 106298717.35948  82830151.87047  20227965.439    20227964.172    20227961.706
 130076489.36646 101358293.40145  24752730.113    24752729.110    24752727.014
 15 12 21  2 52 30.0000000  0 10G27G26G29G05G23G21G09G07G16G31
 122126451.87847  95163458.48346  23239883.209    23239882.885    23239882.701
 110787343.91449  86327807.85148  21082124.411    21082123.789    21082124.635
 125142780.52347  97513860.78146  23813872.808    23813872.154    23813870.521
 129155090.72246 100640334.76346  24577396.754    24577397.227    24577394.739
 113708574.06748  88604088.33846  21638016.687    21638015.625    21638011.125
 129907635.44346 101226724.74842  24720597.672    24720597.034    24720593.870
 113820874.35448  88691595.49348  21659383.160    21659382.650    21659382.231
 127583957.16147  99416071.29546  24278419.658    24278419.150    24278417.496
 106294564.15648  82826915.58447  20227175.152    20227173.891    20227171.388
 130185877.91946 101443531.11445  24773544.965    24773544.201    24773543.146
 15 12 21  2 53  0.0000000  0 10G27G26G29G05G23G21G09G07G16G31
 122017245.32547  95078362.22446  23219104.349    23219103.990    23219101.890
 110842429.90748  86370732.03248  21092606.932    21092606.289    21092607.058
 125237596.65947  97587743.67846  23831916.051    23831914.779    23831912.958
 129103101.91246 100599823.96946  24567503.648    24567503.817    24567501.326
 113758705.15548  88643151.52346  21647556.167    21647555.291    21647550.736
 129843408.46846 101176677.65742  24708375.300    24708374.034    24708372.582
 113802306.92948  88677127.41048  21655849.867    21655849.449    21655849.064
 127476737.78047  99332523.73346  24258016.230    24258015.972    24258013.505
 106290982.58748  82824124.85047  20226493.002    20226491.995    20226489.306
 130295337.75047 101528824.08945  24794375.908    24794375.206    24794373.048
 15 12 21  2 53 30.0000000  0 10G27G26G29G05G23G21G09G07G16G31
 121908288.36547  94993460.47147  23198369.303    23198368.335    23198369.762
 110897956.51748  86413999.52648  21103173.178    21103172.792    21103173.565
 125332736.89547  97661879.02546  23850020.549    23850019.790    23850017.465
 129051630.27046 100559716.23946  24557709.290    24557708.832    24557707.741
 113809389.46448  88682645.72646  21657201.385    21657200.226    21657195.518
 129779500.96446 101126879.51042  24696214.730    24696214.008    24696209.156
 113784358.99848  88663142.01348  21652434.797    21652433.970    21652433.593
 127369613.20547  99249050.04446  24237631.617    24237631.596    24237629.382
 106287970.84948  82821778.08747  20225920.361    20225919.170    20225916.596
 130404867.35946 101614171.78545  24815218.144    24815217.443    24815214.933
 15 12 21  2 54  0.0000000  0 10G27G26G29G05G23G21G09G07G16G31
 121799583.68047  94908755.25047  23177683.885    23177682.690    23177682.755
 110953922.58148  86457609.57448  21113823.316    21113822.627    21113823.366
 125428198.51847  97736264.72746  23868185.618    23868184.672    23868182.903
 129000678.14346 100520013.36446  24548012.906    24548012.233    24548010.866
 113860625.78848  88722570.20846  21666950.896    21666950.046    21666945.408
 129715915.05146 101077332.00442  24684114.064    24684113.430    24684111.158
 113767031.56248  88649640.13648  21649137.689    21649136.837    21649136.336
 127262585.27447  99165651.64346  24217264.487    24217264.075    24217261.370
 106285528.80948  82819875.23947  20225455.611    20225454.395    20225451.817
 130514465.18846 101699572.84745  24836073.602    24836072.948    24836071.513
 15 12 21  2 54 30.0000000  0 10G27G26G29G05G23G21G09G07G16G31
 121691134.70347  94824249.53747  23157047.003    23157045.894    23157046.376
 111010326.08948  86501560.35148  21124556.383    21124555.830    21124556.620
 125523979.11247  97810899.01346  23886411.979    23886411.850    23886408.752
 128950247.11346 100480716.51046  24538416.109    24538416.070    24538414.237
 113912412.55948  88762923.64746  21676805.605    21676804.607    21676800.136
 129652653.42646 101028037.20642  24672075.533    24672073.944    24672072.161
 113750325.48048  88636622.41448  21645958.273    21645957.768    21645957.134
 127155656.05347  99082330.15245  24196916.469    24196915.463    24196912.252
 106283656.62148  82818416.55547  20225099.370    20225098.105    20225095.381
 130624129.75846 101785025.83545  24856942.799    24856941.769    24856940.245
 15 12 21  2 55  0.0000000  0 10G27G26G29G05G23G21G09G07G16G31
 121582944.38047  94739945.89846  23136458.446    23136457.592    23136458.181
 111067165.44249  86545850.74548  21135372.641    21135372.028    21135372.641
 125620076.14947  97885779.92546  23904698.587    23904698.032    23904694.249
 128900338.74447 100441826.87646  24528919.405    24528919.917    24528916.155
 113964747.82248  88803704.39246  21686764.704    21686763.745    21686759.301
 129589717.62746 100978996.39943  24660100.775    24660098.695    24660096.708
 113734241.29748  88624089.31748  21642897.727    21642897.073    21642896.493
 127048827.17146  98999086.94045  24176587.078    24176586.280    24176584.191
 106282353.24548  82817401.04447  20224851.173    20224850.061    20224847.223
 130733859.27247 101870529.57046  24877823.708    24877823.669    24877821.140
 15 12 21  2 55 30.0000000  0 10G27G26G29G05G23G21G09G07G16G31
 121475012.15347  94655841.65247  23115920.475    23115919.587    23115920.168
 111124440.69148  86590480.93848  21146271.784    21146271.069    21146271.718
 125716487.79647  97960905.91446  23923045.878    23923045.535    23923041.511
 128850956.70847 100403347.38746  24519522.188    24519521.155    24519519.928
 114017631.64848  88844912.67946  21696827.996    21696827.372    21696822.604
 129527110.96046 100930212.00043  24648187.021    24648185.573    24648182.853
 113718781.00948  88612042.36248  21639955.839    21639955.202    21639954.499
 126942101.00847  98915923.75346  24156278.122    24156278.229    24156275.457
 106281618.97848  82816828.89347  20224711.442    20224710.229    20224707.509
 130843653.44446 101956083.43446  24898714.164    24898715.153    24898713.986
 15 12 21  2 56  0.0000000  0 10G27G26G29G05G23G21G09G07G16G31
 121367345.73347  94571946.27247  23095432.290    23095431.142    23095432.045
 111182147.37348  86635447.24948  21157252.947    21157252.154    21157252.821
 125813208.95847  98036272.99846  23941451.667    23941450.152    23941445.888
 128802100.06447 100365277.28446  24510224.853    24510224.700    24510223.012
 114071059.71148  88886544.91246  21706994.926    21706994.123    21706989.616
 129464833.64846 100881684.38743  24636335.793    24636335.214    24636330.950
 113703942.96248  88600480.26348  21637132.088    21637131.418    21637130.948
 126835477.31947  98832840.39846  24135989.134    24135988.607    24135985.288
 106281451.87348  82816698.57047  20224679.803    20224678.549    20224675.752
 130953508.77446 102041684.99445  24919621.338    24919619.913    24919619.257
 15 12 21  2 56 30.0000000  0 10G27G26G29G05G23G21G09G07G16G31
 121259945.10747  94488257.72247  23074993.105    23074992.392    23074994.134
 111240285.39448  86680749.50048  21168316.131    21168315.589    21168316.191
 125910238.50247  98111880.38546  23959915.899    23959915.966    23959912.106
 128753772.51547 100327619.41146  24501029.084    24501029.119    24501025.028
 114125032.00248  88928601.20046  21717265.783    21717264.785    21717260.222
 129402888.63846 100833415.59943  24624547.995    24624547.645    24624544.651
 113689729.51448  88589404.86448  21634427.374    21634426.703    21634426.209
 126728959.66047  98749839.61646  24115718.931    24115719.081    24115714.842
 106281853.45648  82817011.48847  20224756.158    20224754.898    20224752.200
 131063425.15646 102127333.97145  24940537.373    24940536.513    24940535.633
 15 12 21  2 57  0.0000000  0 10G27G26G29G05G23G21G09G07G16G31
 121152813.42247  94404778.77247  23054606.749    23054605.688    23054607.307
 111298853.25348  86726386.75948  21179461.308    21179460.772    21179461.423
 126007574.03747  98187726.26745  23978437.941    23978437.864    23978435.718
 128705975.10547 100290374.69746  24491932.553    24491932.142    24491931.643
 114179546.73448  88971080.20746  21727639.447    21727638.613    21727634.003
 129341278.37446 100785407.54043  24612824.330    24612822.124    24612818.709
 113676140.94148  88578816.37048  21631841.399    21631840.645    21631840.399
 126622549.30747  98666922.45646  24095470.024    24095468.946    24095467.506
 106282822.93448  82817766.95747  20224940.453    20224939.322    20224936.752
 131173401.48746 102213029.75945  24961465.484    24961465.117    24961462.892
